State,city,cityClicks,cityApplies,jobPostings,medianIncome,populationTotal,populationWhite,populationBlack,popInLaborForce,unemployedPop,unemploymentRate,lat,long,appliesPerClick,clicksPerPosting,jobsPerUnemployed,percentBlack
AK,ALLAKAKET,4659,755,8,14653,178,26,0,100,33,0.33,66.57,-152.95,0.1620519424769264,582.375,0.24242424242424243,0
AK,ANCHORAGE,44698,7539,66,37110.02482200332,246072,150250,14691,141904,7645,0.053874450332619235,61.1675,-149.85083333333333,0.1686652646650857,677.2424242424242,0.008633093525179856,0.059702038427777236
AK,BETHEL,6984,1141,8,24107,7907,1624,130,3733,458,0.12268952585052237,60.93,-161.8,0.16337342497136312,873,0.017467248908296942,0.016441128114329077
AK,CHUGIAK,4939,847,9,37264,9651,7798,0,5357,322,0.060108269553854766,61.41,-149.17,0.1714922048997773,548.7777777777778,0.027950310559006212,0
AK,CRAIG,2177,360,7,27474,1800,1233,5,1011,85,0.0840751730959446,55.46,-132.83,0.16536518144235185,311,0.08235294117647059,0.002777777777777778
AK,DILLINGHAM,4367,715,6,30101,2467,706,8,1229,63,0.05126118795768918,58.82,-157.86,0.163727959697733,727.8333333333334,0.09523809523809523,0.0032428050263477908
AK,FAIRBANKS,8017,1314,18,36369.58296005684,64742,48003,2655,37684,2696,0.07154229911898949,64.875,-147.5775,0.1639017088686541,445.3888888888889,0.0066765578635014835,0.04100892774396837
AK,HAINES,4015,704,10,28194,2592,1979,1,1454,57,0.039202200825309494,59.16,-135.86,0.17534246575342466,401.5,0.17543859649122806,3.8580246913580245e-4
AK,HOMER,6513,1169,16,27965,10389,8851,74,5295,410,0.07743153918791312,59.4,-151.32,0.1794871794871795,407.0625,0.03902439024390244,0.007122918471460198
AK,JBER,5273,958,6,28496.0797960102,13334,9368,1831,7556,90,0.011911064055055586,61.290000000000006,-149.72,0.1816802579176939,878.8333333333334,0.06666666666666667,0.13731813409329532
AK,JUNEAU,9710,1575,15,40906,30205,21001,363,17557,761,0.04334453494332745,58.58,-134.77,0.16220391349124613,647.3333333333334,0.01971090670170828,0.012017877834795564
AK,KAKTOVIK,10816,2088,8,23333,166,9,0,83,14,0.1686746987951807,70.12,-143.66,0.1930473372781065,1352,0.5714285714285714,0
AK,KETCHIKAN,8716,1486,12,30679,13745,9282,68,7600,513,0.0675,55.61,-131.58,0.17049105094079853,726.3333333333334,0.023391812865497075,0.004947253546744271
AK,KODIAK,11702,2007,12,32874,13135,7343,14,7798,207,0.02654526801744037,57.79,-152.4,0.17150914373611348,975.1666666666666,0.057971014492753624,0.0010658545869813476
AK,KOTZEBUE,8117,1394,10,27775,3379,763,42,1706,211,0.12368112543962485,67.24,-161.19,0.17173832696809166,811.7,0.04739336492890995,0.012429712932820362
AK,LOWER KALSKAG,3723,631,6,11212,280,0,0,114,37,0.32456140350877194,61.51,-160.36,0.16948697287134032,620.5,0.16216216216216217,0
AK,MANOKOTAK,3937,756,10,16509,787,111,0,348,39,0.11206896551724138,58.88,-158.93,0.1920243840487681,393.7,0.2564102564102564,0
AK,NOME,9122,1582,13,29727,4218,1381,75,2222,207,0.09315931593159316,64.71,-164.62,0.17342688007016005,701.6923076923077,0.06280193236714976,0.017780938833570414
AK,NOORVIK,12295,2015,14,11750,605,35,0,238,78,0.3277310924369748,66.83,-161.03,0.16388775925172835,878.2142857142857,0.1794871794871795,0
AK,NORTH POLE,13831,2278,14,35727,23539,19547,442,13228,1187,0.08973389779256123,64.77,-147.33,0.16470247993637482,987.9285714285714,0.011794439764111205,0.01877734823059603
AK,PALMER,5862,965,14,29099,28127,23548,356,13625,1035,0.07596330275229357,61.6,-148.46,0.16461958375980895,418.7142857142857,0.01352657004830918,0.012656877733138977
AK,SAND POINT,11069,1857,14,27386,1267,241,67,860,45,0.05232558139534884,55.26,-160.66,0.1677658325051947,790.6428571428571,0.3111111111111111,0.05288082083662194
AK,SEWARD,4840,825,8,31299,4467,3388,66,2543,124,0.04876130554463232,60.05,-149.33,0.17045454545454544,605,0.06451612903225806,0.014775016789791807
AK,SITKA,6805,1143,9,35408,8921,5744,195,5047,213,0.042203289082623344,56.73,-135,0.16796473181484203,756.1111111111111,0.04225352112676056,0.0218585360385607
AK,SKAGWAY,4803,813,10,35625,1014,815,11,749,44,0.05874499332443257,59.57,-135.35,0.16926920674578388,480.3,0.22727272727272727,0.010848126232741617
AK,SOLDOTNA,6248,1001,13,28878,15159,13118,92,7268,631,0.0868189323059989,60.32,-150.79,0.1602112676056338,480.61538461538464,0.020602218700475437,0.006069001913054951
AK,UNALASKA,10430,1744,14,31235,4452,1447,257,3336,20,0.005995203836930456,53.9,-166.4,0.16720997123681688,745,0.7,0.057726864330637916
AK,WASILLA,12300,2140,27,29683,58889,49143,636,28258,2675,0.09466345813574917,61.52,-149.57,0.17398373983739837,455.55555555555554,0.010093457943925233,0.010799979622679957
AL,ABBEVILLE,5231,854,6,18691,6491,4122,2218,2478,207,0.08353510895883777,31.56,-85.25,0.16325750334544065,871.8333333333334,0.028985507246376812,0.3417038977045139
AL,ADAMSVILLE,9476,1632,18,25319,7708,4493,3150,3463,301,0.08691885648281837,33.59,-86.95,0.1722245673279865,526.4444444444445,0.059800664451827246,0.40866632070576026
AL,ALABASTER,9651,1684,15,29088,26630,20339,3210,13177,538,0.04082871670334674,33.22,-86.82,0.17448969018754534,643.4,0.027881040892193308,0.12054074352234322
AL,ALBERTVILLE,13776,2355,18,19981.82487681051,33485,30863,612,14235,822,0.0577449947312961,34.26,-86.2,0.17094947735191637,765.3333333333334,0.021897810218978103,0.01827684037628789
AL,ALEXANDER CITY,7268,1223,11,20135,20826,12748,7185,8356,753,0.09011488750598372,32.92,-85.93,0.1682718767198679,660.7272727272727,0.014608233731739707,0.3450014405070585
AL,ANDALUSIA,5991,1066,11,22586.010907828844,20169,17095,2598,9002,711,0.07898244834481226,31.335,-86.475,0.17793356701719246,544.6363636363636,0.015471167369901548,0.12881154246616094
AL,ANNISTON,13595,2461,20,20198.954475733502,50852,31595,16632,22419,2864,0.12774878451313618,33.66,-85.81,0.18102243471864657,679.75,0.006983240223463687,0.3270667820341383
AL,ARAB,7008,1213,10,21767,15997,15454,65,7124,522,0.07327344188658057,34.32,-86.5,0.173087899543379,700.8,0.019157088122605363,0.00406326186159905
AL,ASHLAND,6683,1118,14,17940,5195,4524,504,2117,207,0.09777987718469533,33.27,-85.83,0.1672901391590603,477.35714285714283,0.06763285024154589,0.09701636188642926
AL,ATHENS,21645,3940,25,25897.41275428335,57957,47438,7415,25409,2048,0.08060136172222442,34.78,-86.95,0.18202818202818202,865.8,0.01220703125,0.12793967941749917
AL,ATMORE,15141,2600,16,18847,18608,9841,6924,6703,835,0.12457108757272863,31.02,-87.49,0.17171917310613566,946.3125,0.019161676646706587,0.37209802235597594
AL,ATTALLA,11016,1874,16,21801,11447,9788,1289,5343,609,0.11398090960134756,34.01,-86.1,0.17011619462599856,688.5,0.026272577996715927,0.11260592294924435
AL,AUBURN,18454,3200,35,20825.493445814405,61640,42440,13004,32351,1694,0.05236314178850731,32.59,-85.48,0.17340414002384308,527.2571428571429,0.02066115702479339,0.21096690460739778
AL,BAILEYTON,6793,1129,14,19409,2358,2213,45,885,60,0.06779661016949153,34.26,-86.61,0.16620050051523627,485.2142857142857,0.23333333333333334,0.019083969465648856
AL,BAY MINETTE,9087,1796,10,22369,20384,15247,4775,8348,535,0.06408720651653091,30.88,-87.77,0.19764498734455815,908.7,0.018691588785046728,0.23425235478806908
AL,BAYOU LA BATRE,6366,1047,9,16063,2099,1032,232,932,28,0.030042918454935622,30.4,-88.25,0.1644674835061263,707.3333333333334,0.32142857142857145,0.11052882324916627
AL,BESSEMER,10346,1723,18,22347.745443372114,71599,33166,34531,31428,2919,0.09287896143566246,33.39,-86.97,0.16653779238352986,574.7777777777778,0.006166495375128468,0.482283272112739
AL,BIRMINGHAM,144346,26170,217,29826.747146459318,497715,252412,216708,253052,18716,0.07396108309754516,33.52,-86.79,0.1813004863314536,665.1889400921659,0.011594357768754008,0.435405804526687
AL,BOAZ,5601,919,9,20464.313266140016,25697,23858,220,11201,774,0.06910097312739934,34.2,-86.15,0.16407784324227817,622.3333333333334,0.011627906976744186,0.00856131065883177
AL,BREWTON,4007,658,9,18432,15514,10676,4520,5960,1071,0.1796979865771812,31.11,-87.07,0.16421262790117294,445.22222222222223,0.008403361344537815,0.29134974861415497
AL,BRIDGEPORT,8397,1596,10,22290,3413,2900,261,1384,89,0.06430635838150289,34.94,-85.71,0.19006788138620936,839.7,0.11235955056179775,0.07647231174919426
AL,BROOKSIDE,8963,1721,14,12574,294,91,200,105,5,0.047619047619047616,33.63,-86.91,0.19201160325783778,640.2142857142857,2.8,0.6802721088435374
AL,BRUNDIDGE,11105,1899,11,17821,4781,2662,2010,2044,282,0.1379647749510763,31.71,-85.81,0.1710040522287258,1009.5454545454545,0.03900709219858156,0.42041413930140137
AL,CALERA,4979,890,9,30924,16646,12289,3680,8874,305,0.03437006986702727,33.1,-86.75,0.1787507531632858,553.2222222222222,0.029508196721311476,0.22107413192358524
AL,CASTLEBERRY,9659,1631,13,14723,2789,2027,747,829,125,0.15078407720144751,31.29,-87.02,0.1688580598405632,743,0.104,0.2678379347436357
AL,CENTREVILLE,6149,1012,11,24284,5813,4854,867,3028,121,0.039960369881109646,32.95,-87.13,0.16457960644007155,559,0.09090909090909091,0.14914846034749699
AL,CHELSEA,6128,1235,6,36176,10584,9548,675,5277,108,0.02046617396247868,33.32,-86.63,0.20153394255874674,1021.3333333333334,0.05555555555555555,0.06377551020408163
AL,CHEROKEE,8536,1474,21,21269,4332,3635,473,1654,131,0.07920193470374849,34.75,-87.96,0.17268041237113402,406.4761904761905,0.16030534351145037,0.10918744228993536
AL,CHILDERSBURG,12926,2093,15,21403,8076,4748,3107,3705,390,0.10526315789473684,33.27,-86.35,0.1619217081850534,861.7333333333333,0.038461538461538464,0.38472015849430413
AL,CLANTON,12725,2205,10,23767.00822277153,19823,16943,2252,8781,602,0.06855711194624758,32.84,-86.62,0.17328094302554028,1272.5,0.016611295681063124,0.11360540785955708
AL,CLIO,6771,1206,9,12750,2861,1452,1292,696,69,0.09913793103448276,31.7,-85.61,0.17811253876827648,752.3333333333334,0.13043478260869565,0.4515903530234184
AL,COLLINSVILLE,6516,1211,10,18309,7041,5919,269,2722,72,0.02645113886847906,34.26,-85.86,0.18585021485573971,651.6,0.1388888888888889,0.038204800454480894
AL,COLUMBIA,11031,1886,18,21638,1742,1498,198,659,61,0.09256449165402124,31.29,-85.11,0.1709727132626235,612.8333333333334,0.29508196721311475,0.11366245694603903
AL,COLUMBIANA,8583,1439,13,20332,8753,6989,1440,3203,122,0.03808929128941617,33.17,-86.6,0.16765699638820925,660.2307692307693,0.10655737704918032,0.16451502342054153
AL,COURTLAND,12812,2224,10,19153,1962,748,1202,733,62,0.08458390177353342,34.66,-87.31,0.17358726194192944,1281.2,0.16129032258064516,0.6126401630988787
AL,CROSSVILLE,8248,1446,16,21250,9691,7376,4,3810,124,0.03254593175853018,34.28,-85.99,0.1753152279340446,515.5,0.12903225806451613,4.127541017438861e-4
AL,CULLMAN,10322,1772,21,22896.04889549604,43051,41537,272,19039,991,0.05205105310152844,34.17,-86.83,0.17167215655880644,491.5238095238095,0.02119071644803229,0.006318087849295022
AL,CUSSETA,4333,712,7,15966,2239,1745,447,999,48,0.04804804804804805,32.75,-85.23,0.1643203323332564,619,0.14583333333333334,0.19964269763287182
AL,DAPHNE,13438,2540,17,31016,33151,26867,5130,18038,814,0.045126954207783565,30.62,-87.89,0.18901622265218038,790.4705882352941,0.020884520884520884,0.15474646315344937
AL,DAUPHIN ISLAND,2902,478,8,31746,1156,1115,0,534,26,0.04868913857677903,30.25,-88.11,0.16471399035148174,362.75,0.3076923076923077,0
AL,DECATUR,20241,3655,32,23629.944574004978,64320,47075,12394,30123,2306,0.07655280018590446,34.57,-86.98,0.18057408230818636,632.53125,0.013876843018213356,0.19269278606965173
AL,DEMOPOLIS,7120,1296,10,19649,8328,3485,4659,3250,469,0.1443076923076923,32.5,-87.83,0.18202247191011237,712,0.021321961620469083,0.5594380403458213
AL,DORA,8640,1434,13,25026,7670,7288,242,3306,222,0.06715063520871144,33.73,-87.08,0.16597222222222222,664.6153846153846,0.05855855855855856,0.03155149934810952
AL,DOTHAN,17997,3204,27,23089.80820759548,83971,55502,25283,38960,2967,0.07615503080082135,31.23,-85.4,0.17802967161193534,666.5555555555555,0.00910010111223458,0.30109204368174725
AL,DUNCANVILLE,12107,1979,15,16804,3437,2897,458,1751,267,0.15248429468874927,33.06,-87.42,0.16345915586024615,807.1333333333333,0.056179775280898875,0.13325574629036951
AL,EASTABOGA,5004,866,7,25912,3928,3166,530,1778,72,0.04049493813273341,33.6,-85.97,0.17306155075939247,714.8571428571429,0.09722222222222222,0.134928716904277
AL,EIGHT MILE,5758,950,9,21269,13713,6709,6786,5309,432,0.0813712563571294,30.76,-88.12,0.16498784300104202,639.7777777777778,0.020833333333333332,0.4948588930212207
AL,ELBA,7294,1367,11,19029,7870,5501,1813,3343,208,0.06221956326652707,31.41,-86.07,0.1874143131340828,663.0909090909091,0.052884615384615384,0.2303684879288437
AL,ELKMONT,4871,863,10,24509,8749,8191,386,4182,410,0.09803921568627451,34.92,-86.97,0.17717101211250258,487.1,0.024390243902439025,0.044119327923191225
AL,ELMORE,12186,2128,15,7728,7110,3223,3343,1868,234,0.1252676659528908,32.53,-86.31,0.1746266207122928,812.4,0.0641025641025641,0.470182841068917
AL,ENTERPRISE,10459,1754,15,26757,36674,27239,7084,18018,1119,0.062104562104562104,31.32,-85.84,0.16770245721388277,697.2666666666667,0.013404825737265416,0.1931613677264547
AL,EUFAULA,5465,929,12,19913,16159,7168,7801,6946,828,0.11920529801324503,31.9,-85.15,0.16999085086916743,455.4166666666667,0.014492753623188406,0.48276502258803144
AL,EVERGREEN,9813,1653,15,15623,7902,3235,4492,3060,734,0.23986928104575164,31.43,-86.95,0.1684500152858453,654.2,0.020435967302452316,0.5684636800809921
AL,FAIRFIELD,10030,1633,13,19700,11392,637,10295,5046,683,0.13535473642489101,33.47,-86.91,0.16281156530408775,771.5384615384615,0.01903367496339678,0.9037043539325843
AL,FAIRHOPE,9251,1584,22,31225,32285,29272,1901,14545,678,0.04661395668614644,30.51,-87.88,0.17122473246135553,420.5,0.032448377581120944,0.05888183366888648
AL,FALKVILLE,4001,783,5,22341,7488,7075,75,3457,284,0.08215215504772924,34.37,-86.9,0.19570107473131718,800.2,0.017605633802816902,0.010016025641025642
AL,FLORENCE,20494,3479,30,21858.576906318085,64260,53477,8622,29582,2162,0.07308498411195997,34.82,-87.66,0.1697570020493803,683.1333333333333,0.013876040703052728,0.1341736694677871
AL,FOLEY,13682,2315,16,22230,27899,23120,3324,13194,950,0.07200242534485372,30.4,-87.68,0.16920040929688643,855.125,0.016842105263157894,0.1191440553424854
AL,FORT MITCHELL,2519,495,11,40490,6603,3273,2847,3293,216,0.06559368357121166,32.38,-85.1,0.1965065502183406,229,0.05092592592592592,0.4311676510676965
AL,FORT PAYNE,12296,2205,16,20228.613065326634,20895,18012,559,9145,756,0.08266812465828322,34.45,-85.69,0.1793266102797658,768.5,0.021164021164021163,0.026752811677434794
AL,FORT RUCKER,6906,1160,13,31597,4681,3740,384,2454,116,0.04726976365118175,31.34,-85.71,0.16796988126267015,531.2307692307693,0.11206896551724138,0.08203375347148045
AL,FULTONDALE,8907,1960,9,30995,8201,6075,1530,4451,160,0.03594697820714446,33.61,-86.8,0.22005164477377342,989.6666666666666,0.05625,0.1865626143153274
AL,GADSDEN,8972,1572,20,21423.982819575453,66471,50483,13629,28998,2152,0.07421201462169805,34.01,-86.01,0.17521176995095855,448.6,0.00929368029739777,0.20503678295798167
AL,GALLANT,2253,390,6,22423,1300,1300,0,665,69,0.1037593984962406,33.99,-86.22,0.17310252996005326,375.5,0.08695652173913043,0
AL,GARDENDALE,12505,2403,18,30406,15815,13357,1831,7918,291,0.036751704976004045,33.66,-86.8,0.19216313474610155,694.7222222222222,0.061855670103092786,0.11577616187164085
AL,GENEVA,11751,2132,15,19620,6066,5014,823,2350,201,0.08553191489361703,31.03,-85.87,0.1814313675431878,783.4,0.07462686567164178,0.13567424991757335
AL,GORDO,4634,823,13,20911,5221,4217,944,2164,292,0.13493530499075784,33.32,-87.9,0.1776003452740613,356.46153846153845,0.04452054794520548,0.18080827427695845
AL,GRAND BAY,1743,345,4,22764,15464,13486,1593,6637,409,0.06162422781377128,30.47,-88.34,0.19793459552495696,435.75,0.009779951100244499,0.10301345059493017
AL,GREENVILLE,6185,1120,12,21431,13842,6912,6474,6410,585,0.09126365054602184,31.82,-86.62,0.18108326596604687,515.4166666666666,0.020512820512820513,0.46770697876029477
AL,GULF SHORES,8798,1468,18,23903,13494,12378,3,6610,745,0.11270801815431165,30.27,-87.7,0.1668561036599227,488.77777777777777,0.024161073825503355,2.2232103156958648e-4
AL,GUNTERSVILLE,15278,2747,19,24198,17138,15279,1045,7667,570,0.07434459371331681,34.35,-86.27,0.17980102107605708,804.1052631578947,0.03333333333333333,0.06097560975609756
AL,HALEYVILLE,7498,1264,9,18544,13166,12887,18,5634,405,0.07188498402555911,34.23,-87.61,0.1685782875433449,833.1111111111111,0.022222222222222223,0.0013671578307762418
AL,HAMILTON,11124,1846,19,19144,11606,10329,550,4737,330,0.06966434452184928,34.14,-87.98,0.1659475008989572,585.4736842105264,0.05757575757575758,0.04738928140616922
AL,HANCEVILLE,5114,833,6,19416,12676,11750,555,4783,334,0.06983065021952749,34.06,-86.76,0.16288619475948377,852.3333333333334,0.017964071856287425,0.043783527926790786
AL,HARTSELLE,3874,644,7,25875,25434,23211,1221,12121,1012,0.08349146110056926,34.43,-86.93,0.16623644811564275,553.4285714285714,0.00691699604743083,0.048006605331446094
AL,HARVEST,2856,516,7,34047,21063,14811,5132,11235,622,0.05536270582999555,34.85,-86.74,0.18067226890756302,408,0.011254019292604502,0.2436500023738309
AL,HEADLAND,8810,1592,13,25696,8653,6707,1880,4221,246,0.05828002842928216,31.35,-85.34,0.18070374574347334,677.6923076923077,0.052845528455284556,0.21726568820062406
AL,HELENA,2337,400,7,42695,16882,14135,1669,8910,231,0.025925925925925925,33.28,-86.85,0.17115960633290545,333.85714285714283,0.030303030303030304,0.09886269399360266
AL,HILLSBORO,4953,922,11,19210,3086,1913,843,1452,96,0.06611570247933884,34.63,-87.18,0.1861498081970523,450.27272727272725,0.11458333333333333,0.2731691510045366
AL,HUNTSVILLE,96349,17721,131,28593.625874950038,195154,120914,60457,101211,8078,0.07981345901137228,34.7,-86.62,0.18392510560566275,735.4885496183206,0.016216885367665263,0.30979124178853623
AL,JACKSON,12560,2161,19,19838,10235,5068,5131,3994,840,0.21031547320981472,31.53,-87.89,0.17205414012738854,661.0526315789474,0.02261904761904762,0.5013190034196385
AL,JACKSONVILLE,13899,2427,12,19654,20741,16583,3289,10106,940,0.09301405105877697,33.81,-85.76,0.17461687891215194,1158.25,0.01276595744680851,0.1585748035292416
AL,JASPER,8500,1410,14,20847.88362539316,31158,27802,2319,13205,1125,0.08519500189322227,33.85,-87.27,0.16588235294117648,607.1428571428571,0.012444444444444444,0.07442711342191412
AL,KILLEN,12168,2371,11,27626,13992,13509,186,6553,357,0.054478864642148635,34.86,-87.52,0.19485535831689677,1106.1818181818182,0.03081232492997199,0.013293310463121783
AL,KIMBERLY,3660,596,9,38153,3010,2893,63,1453,44,0.030282174810736407,33.76,-86.8,0.1628415300546448,406.6666666666667,0.20454545454545456,0.020930232558139535
AL,LACEYS SPRING,15350,2501,11,25804,5182,4691,30,2198,79,0.0359417652411283,34.48,-86.62,0.16293159609120522,1395.4545454545455,0.13924050632911392,0.005789270551910459
AL,LAFAYETTE,7818,1575,9,18428,6271,2742,3430,2516,165,0.06558028616852146,32.89,-85.4,0.2014581734458941,868.6666666666666,0.05454545454545454,0.546962206984532
AL,LANETT,15215,2569,13,21100,11870,6248,5379,5452,521,0.09556126192223037,32.86,-85.2,0.16884653302661848,1170.3846153846155,0.02495201535508637,0.4531592249368155
AL,LEEDS,8538,1447,13,29349,14281,11643,2158,6503,303,0.0465938797478087,33.54,-86.56,0.16947762942141018,656.7692307692307,0.0429042904290429,0.15110986625586442
AL,LEESBURG,11583,2244,12,25369,3534,3392,106,1519,140,0.09216589861751152,34.17,-85.76,0.19373219373219372,965.25,0.08571428571428572,0.029994340690435765
AL,LINCOLN,7906,1443,15,24976,7866,5942,1649,3755,401,0.10679094540612516,33.59,-86.13,0.18251960536301542,527.0666666666667,0.03740648379052369,0.20963640986524282
AL,LINDEN,3198,563,8,24427,3019,1907,1075,1309,137,0.10466004583651642,32.3,-87.79,0.1760475297060663,399.75,0.058394160583941604,0.3560781715799934
AL,LOXLEY,2447,411,10,20856,8861,7502,1117,3870,245,0.06330749354005168,30.62,-87.75,0.16796076828769924,244.7,0.04081632653061224,0.12605800699695294
AL,LUVERNE,7021,1164,11,21771,5597,3983,1412,2339,130,0.05557930739632321,31.7,-86.26,0.1657883492380003,638.2727272727273,0.08461538461538462,0.25227800607468287
AL,MADISON,16602,3067,28,41994.45011696711,72670,51664,14036,39536,1819,0.04600870093079725,34.7,-86.74,0.1847367787013613,592.9285714285714,0.015393073117097306,0.1931471033438833
AL,MARION,7850,1319,11,15279,5700,1722,3874,1757,144,0.08195788275469551,32.63,-87.31,0.16802547770700638,713.6363636363636,0.0763888888888889,0.6796491228070175
AL,MERIDIANVILLE,4279,748,7,32177,7410,5575,1419,3759,302,0.08034051609470604,34.87,-86.57,0.17480719794344474,611.2857142857143,0.023178807947019868,0.19149797570850202
AL,MIDLAND CITY,7216,1342,14,23774,6097,4527,1378,2900,197,0.06793103448275863,31.31,-85.49,0.18597560975609756,515.4285714285714,0.07106598984771574,0.2260127931769723
AL,MILLBROOK,6079,978,7,28449,15372,10486,4416,7563,155,0.020494512759486976,32.49,-86.36,0.16088172396775785,868.4285714285714,0.04516129032258064,0.28727556596409054
AL,MOBILE,61328,11592,79,24189.703830618702,274316,138639,123846,127482,11057,0.08673381340110761,30.68,-88.04,0.1890164362118445,776.3037974683544,0.00714479515239215,0.45147202496391026
AL,MONROEVILLE,9849,1750,10,19495,10903,5520,5307,4382,921,0.21017800091282518,31.51,-87.32,0.17768301350390903,984.9,0.010857763300760043,0.48674676694487756
AL,MONTEVALLO,6710,1133,14,18538,14532,11419,1872,6985,735,0.10522548317823908,33.1,-86.85,0.16885245901639345,479.2857142857143,0.01904761904761905,0.12881915772089184
AL,MONTGOMERY,58001,10708,74,25243.295013883286,210685,75129,123980,103391,8313,0.08040351674710565,32.35,-86.28,0.18461750659471388,783.7972972972973,0.008901720197281367,0.5884614471841849
AL,MOODY,7525,1268,12,33540,10418,8521,1657,5948,289,0.048587760591795565,33.59,-86.49,0.16850498338870432,627.0833333333334,0.04152249134948097,0.1590516413899021
AL,MOULTON,10361,1680,16,23175,14442,12324,733,5841,400,0.0684814244136278,34.48,-87.28,0.16214651095454108,647.5625,0.04,0.05075474311037252
AL,MOUNDVILLE,10451,1917,15,22931,6717,4104,2270,2922,212,0.07255304585900069,32.99,-87.63,0.18342742321308966,696.7333333333333,0.07075471698113207,0.337948488908739
AL,MUSCLE SHOALS,8356,1374,19,26078,16861,13766,2666,7935,452,0.05696282293635791,34.74,-87.64,0.16443274293920537,439.7894736842105,0.0420353982300885,0.15811636320502936
AL,NORTHPORT,9941,1784,6,28567.175648039265,39118,30639,7586,20089,1062,0.0528647518542486,33.24,-87.59,0.1794588069610703,1656.8333333333333,0.005649717514124294,0.19392606983997138
AL,ODENVILLE,3932,664,10,27417,14311,12127,1434,6971,316,0.04533065557308851,33.68,-86.39,0.1688708036622584,393.2,0.03164556962025317,0.10020264132485501
AL,ONEONTA,6453,1033,11,25948,15135,13907,574,6244,300,0.048046124279308135,33.95,-86.47,0.16008058267472494,586.6363636363636,0.03666666666666667,0.03792533861909481
AL,OPELIKA,16585,2873,24,23193.193011647254,41469,24532,14800,19558,930,0.047550874322527865,32.65,-85.37,0.17322882122399758,691.0416666666666,0.025806451612903226,0.3568931008705298
AL,ORANGE BEACH,13065,2279,20,30856,6391,6270,31,3096,161,0.052002583979328165,30.28,-87.59,0.1744355147340222,653.25,0.12422360248447205,0.004850571115631357
AL,OXFORD,7967,1461,14,25e3,18104,14202,2725,9172,902,0.09834278238116005,33.66,-85.81,0.1833814484749592,569.0714285714286,0.015521064301552107,0.15051922227132125
AL,OZARK,4047,723,8,21416,19280,13422,5049,8404,651,0.07746311280342694,31.43,-85.64,0.17865085248332097,505.875,0.01228878648233487,0.26187759336099586
AL,PARRISH,7380,1207,12,18646,4016,3770,132,1627,217,0.1333743085433313,33.73,-87.28,0.16355013550135503,615,0.055299539170506916,0.03286852589641434
AL,PELHAM,14427,2812,15,35714,24374,19670,2123,13695,594,0.043373493975903614,33.3,-86.79,0.19491231718305954,961.8,0.025252525252525252,0.08710100927217528
AL,PELL CITY,10687,1778,18,24477.738095238095,21042,18711,1959,9999,788,0.07880788078807881,33.56,-86.27,0.1663703565079068,593.7222222222222,0.02284263959390863,0.09309951525520388
AL,PHENIX CITY,8917,1737,11,24830.924197587072,65895,39513,22879,31501,2623,0.0832671978667344,32.46,-85.01,0.1947964562072446,810.6363636363636,0.0041936713686618375,0.3472038849685105
AL,PIEDMONT,8113,1305,8,21094,12702,11772,527,5356,382,0.07132188200149366,33.92,-85.61,0.1608529520522618,1014.125,0.020942408376963352,0.04148952920799874
AL,PINSON,4000,659,10,29601,21507,17289,3465,10844,658,0.06067871634083364,33.72,-86.65,0.16475,400,0.015197568389057751,0.1611103361696192
AL,PLEASANT GROVE,5124,885,13,28855,10284,4740,5434,5101,376,0.07371103705155851,33.48,-86.97,0.17271662763466042,394.15384615384613,0.034574468085106384,0.5283936211590821
AL,PRATTVILLE,11882,1942,16,27333.975813020865,47877,36309,9066,22765,1076,0.04726553920491983,32.46,-86.44,0.16344049823262077,742.625,0.01486988847583643,0.18936023560373458
AL,RAINBOW CITY,8386,1354,12,26903,9959,8699,1014,4244,404,0.09519321394910461,33.92,-86.08,0.16145957548294776,698.8333333333334,0.0297029702970297,0.10181745155136057
AL,RAINSVILLE,3988,689,3,20846,7789,7140,187,3360,176,0.05238095238095238,34.49,-85.84,0.17276830491474424,1329.3333333333333,0.017045454545454544,0.02400821671588137
AL,RED BAY,4922,829,9,19662,3954,3877,49,1876,138,0.07356076759061833,34.43,-88.13,0.1684274685087363,546.8888888888889,0.06521739130434782,0.012392513909964592
AL,REFORM,2143,401,8,20761,3611,2361,1165,1430,187,0.13076923076923078,33.37,-88.01,0.18712085860942604,267.875,0.0427807486631016,0.32262531154804763
AL,ROANOKE,4575,778,9,22196,11497,8074,3133,4844,283,0.05842279108175062,33.14,-85.36,0.17005464480874316,508.3333333333333,0.03180212014134275,0.27250587109680785
AL,ROBERTSDALE,5360,999,11,23676,14409,13153,418,6123,332,0.05422178670586314,30.55,-87.7,0.18638059701492538,487.27272727272725,0.03313253012048193,0.02900964674855993
AL,ROGERSVILLE,6534,1166,10,25868,8338,7795,292,3647,225,0.06169454346037839,34.82,-87.28,0.17845117845117844,653.4,0.044444444444444446,0.03502038858239386
AL,RUSSELLVILLE,7863,1644,10,20840.036749327755,20082,16930,1359,8382,681,0.0812455261274159,34.5,-87.72,0.20908050362457078,786.3,0.014684287812041116,0.0676725425754407
AL,SAFFORD,11918,1962,13,22500,484,152,332,197,8,0.04060913705583756,32.29,-87.35,0.1646249370699782,916.7692307692307,1.625,0.6859504132231405
AL,SALEM,13154,2370,14,25970,8024,5950,1710,4062,190,0.04677498769079271,32.61,-85.17,0.1801733313060666,939.5714285714286,0.07368421052631578,0.21311066799601197
AL,SAMSON,5461,917,11,16813,4372,3632,466,1711,226,0.13208649912331968,31.11,-86.04,0.16791796374290424,496.45454545454544,0.048672566371681415,0.10658737419945105
AL,SARALAND,1538,269,4,26012,14974,12214,1797,7051,474,0.06722450716210467,30.82,-88.09,0.17490247074122237,384.5,0.008438818565400843,0.12000801389074396
AL,SATSUMA,5979,953,8,29221,6276,5333,695,2923,168,0.057475196715703045,30.85,-88.06,0.15939120254223113,747.375,0.047619047619047616,0.11073932441045252
AL,SCOTTSBORO,11577,1918,18,22824.474431818184,21120,19132,825,9684,745,0.07693102023957042,34.64,-86.04,0.1656733177852639,643.1666666666666,0.024161073825503355,0.0390625
AL,SEALE,5179,918,12,25764,4014,2827,841,1806,161,0.08914728682170543,32.3,-85.18,0.17725429619617686,431.5833333333333,0.07453416149068323,0.20951669157947184
AL,SELMA,5129,823,8,17798.265316287565,36138,10452,25005,14749,2202,0.14929825750898365,32.41,-87.03,0.1604601286800546,641.125,0.0036330608537693005,0.6919309314295202
AL,SEMMES,4194,779,10,26543,20128,17095,2123,8703,556,0.0638860163162128,30.77,-88.26,0.18574153552694325,419.4,0.017985611510791366,0.10547496025437202
AL,SHEFFIELD,8290,1429,10,19925,9067,6505,1914,3802,275,0.072330352446081,34.75,-87.7,0.17237635705669482,829,0.03636363636363636,0.21109518032425278
AL,SHELBY,8176,1494,15,23634,3432,3032,369,1489,99,0.06648757555406314,33.07,-86.56,0.18272994129158512,545.0666666666667,0.15151515151515152,0.10751748251748251
AL,SLOCOMB,4717,852,8,20380,6593,5830,633,3074,265,0.08620689655172414,31.11,-85.59,0.18062327750688997,589.625,0.03018867924528302,0.09601092067344152
AL,SPANISH FORT,6644,1166,13,40547,13660,11767,898,7112,242,0.03402699662542182,30.67,-87.88,0.17549668874172186,511.0769230769231,0.05371900826446281,0.0657393850658858
AL,STAPLETON,9758,1708,10,23761,1434,1411,0,548,59,0.10766423357664233,30.74,-87.79,0.1750358680057389,975.8,0.1694915254237288,0
AL,STEELE,6590,1213,9,23730,2702,2567,20,1290,86,0.06666666666666667,33.93,-86.19,0.18406676783004552,732.2222222222222,0.10465116279069768,0.007401924500370096
AL,STEVENSON,2287,426,6,21878,4396,3902,360,1840,133,0.07228260869565217,34.87,-85.83,0.18627022299956275,381.1666666666667,0.045112781954887216,0.0818926296633303
AL,SUMITON,8669,1411,10,19180,2822,2512,260,1064,68,0.06390977443609022,33.75,-87.04,0.16276387126542854,866.9,0.14705882352941177,0.09213323883770376
AL,SUMMERDALE,10896,2009,18,20300,5996,5474,140,2720,188,0.06911764705882353,30.48,-87.7,0.18437958883994127,605.3333333333334,0.09574468085106383,0.02334889926617745
AL,SYLACAUGA,6928,1292,12,19127.58822576727,24698,17443,6696,10415,1202,0.11541046567450793,33.17,-86.26,0.18648960739030024,577.3333333333334,0.009983361064891847,0.2711150700461576
AL,TALLADEGA,7047,1198,10,18788,26350,14453,10974,10695,1722,0.16100981767180925,33.43,-86.09,0.17000141904356464,704.7,0.005807200929152149,0.4164705882352941
AL,TALLASSEE,7161,1177,12,27385,13459,10216,2862,6263,539,0.0860609931342807,32.53,-85.89,0.16436251920122888,596.75,0.022263450834879406,0.2126458132104911
AL,THEODORE,9198,1579,11,23142,24940,19029,4192,11551,878,0.07601073500129858,30.54,-88.17,0.17166775385953467,836.1818181818181,0.012528473804100227,0.16808340016038492
AL,THOMASVILLE,6831,1155,9,19099,7289,4073,3089,2886,249,0.08627858627858628,31.91,-87.74,0.16908212560386474,759,0.03614457831325301,0.42378927150500756
AL,TONEY,5562,989,9,26864,12497,9402,2345,6478,705,0.1088298857672121,34.9,-86.72,0.17781373606616324,618,0.01276595744680851,0.187645034808354
AL,TOWN CREEK,4324,773,7,27602,6104,4345,822,2462,173,0.07026807473598701,34.67,-87.4,0.17876965772432932,617.7142857142857,0.04046242774566474,0.13466579292267367
AL,TROY,8637,1711,13,19300.887842560238,27185,15774,10149,13141,1174,0.08933871090480176,31.8,-85.96,0.1981011925437073,664.3846153846154,0.011073253833049404,0.3733308810005518
AL,TRUSSVILLE,14085,2435,19,40538,26597,23640,1713,13426,431,0.03210189185163116,33.63,-86.59,0.1728789492367767,741.3157894736842,0.04408352668213457,0.06440576004812573
AL,TUSCALOOSA,35237,6238,46,22588.93351325447,118941,63742,50109,55582,4148,0.07462847684502177,33.23,-87.54,0.17702982660271874,766.0217391304348,0.011089681774349084,0.4212929099301334
AL,TUSCUMBIA,10066,1752,17,23077,18041,14770,2273,8061,579,0.0718273167100856,34.72,-87.7,0.17405126167295848,592.1176470588235,0.02936096718480138,0.12599079873621197
AL,TUSKEGEE,7340,1263,12,20339,8178,464,7534,3773,517,0.13702623906705538,32.43,-85.71,0.1720708446866485,611.6666666666666,0.02321083172147002,0.9212521398875031
AL,UNION GROVE,3762,693,7,21211,5888,5630,4,2654,142,0.053504144687264506,34.4,-86.44,0.18421052631578946,537.4285714285714,0.04929577464788732,6.793478260869565e-4
AL,VALLEY,3755,694,9,25328,15155,10592,4085,7210,373,0.05173370319001387,32.8,-85.17,0.1848202396804261,417.22222222222223,0.024128686327077747,0.2695480039590894
AL,VANCE,7875,1427,12,28789,4188,3876,177,2023,70,0.03460207612456748,33.17,-87.22,0.1812063492063492,656.25,0.17142857142857143,0.042263610315186245
AL,WARRIOR,1465,248,5,30329,14380,12984,956,6565,294,0.04478293983244478,33.81,-86.8,0.16928327645051194,293,0.017006802721088437,0.06648122392211404
AL,WEDOWEE,3093,512,6,19386,4469,3443,839,1625,98,0.060307692307692305,33.3,-85.48,0.1655350792111219,515.5,0.061224489795918366,0.1877377489371224
AL,WETUMPKA,9193,1762,15,28650.763002269603,31283,24781,5675,14314,1370,0.09571049322341764,32.54,-86.2,0.19166757315348634,612.8666666666667,0.010948905109489052,0.181408432695074
AL,WINFIELD,8276,1750,6,20315,7094,6709,337,3007,231,0.07682075157964749,33.92,-87.79,0.21145480908651523,1379.3333333333333,0.025974025974025976,0.04750493374682831
AL,WOODSTOCK,12869,2274,19,23922,3280,3074,32,1534,70,0.04563233376792699,33.16,-87.17,0.17670370658170798,677.3157894736842,0.2714285714285714,0.00975609756097561
AR,ALEXANDER,9165,1590,14,29068,17369,14800,1932,8817,425,0.04820233639559941,34.63,-92.44,0.1734860883797054,654.6428571428571,0.03294117647058824,0.1112326558811676
AR,ALMA,5871,1036,13,25892,13955,12998,253,6489,391,0.060255817537370936,35.48,-94.22,0.1764605688979731,451.61538461538464,0.03324808184143223,0.018129702615549984
AR,ARKADELPHIA,1675,295,6,17204.22930750959,16419,12048,3626,8092,413,0.05103806228373702,34.12,-93.07,0.1761194029850746,279.1666666666667,0.014527845036319613,0.22084170777757475
AR,ASH FLAT,3179,539,7,14642,2848,2727,29,936,56,0.05982905982905983,36.22,-91.6,0.1695501730103806,454.14285714285717,0.125,0.010182584269662922
AR,ATKINS,9530,1783,13,21332,6155,5937,60,2582,157,0.06080557707203718,35.24,-92.94,0.18709338929695699,733.0769230769231,0.08280254777070063,0.00974817221770918
AR,BARLING,5330,865,8,20295,4821,4195,43,2240,163,0.07276785714285715,35.32,-94.3,0.1622889305816135,666.25,0.049079754601226995,0.008919311346193736
AR,BATESVILLE,8137,1344,12,21050,25612,23240,636,11926,766,0.06422941472413214,35.76,-91.62,0.16517143910532137,678.0833333333334,0.015665796344647518,0.024832109948461658
AR,BAUXITE,4989,821,7,23241,4021,3776,67,2060,80,0.038834951456310676,34.55,-92.52,0.16456203648025655,712.7142857142857,0.0875,0.01666252176075603
AR,BEARDEN,7722,1309,15,20141,2143,1570,463,1070,61,0.05700934579439252,33.72,-92.61,0.16951566951566951,514.8,0.2459016393442623,0.2160522631824545
AR,BEEBE,5675,987,12,25938,12694,12039,540,6143,460,0.0748819794888491,35.07,-91.89,0.17392070484581498,472.9166666666667,0.02608695652173913,0.04253978257444462
AR,BELLA VISTA,6274,1046,14,31917.35659242056,28419,27226,231,12010,378,0.031473771856786015,36.46,-94.29,0.16671979598342365,448.14285714285717,0.037037037037037035,0.00812836482634857
AR,BENTON,16613,2847,25,29358.388335469695,54610,49883,2774,27578,1124,0.040757125244760314,34.585,-92.61,0.17137181725154998,664.52,0.02224199288256228,0.0507965574070683
AR,BENTONVILLE,29059,4930,49,37983,49310,41150,1128,25190,716,0.028423977768955933,36.36,-94.2,0.16965484015279259,593.0408163265306,0.06843575418994413,0.02287568444534577
AR,BERRYVILLE,10055,1642,14,20624,10545,9988,145,4756,315,0.06623212783851977,36.37,-93.56,0.16330183988065639,718.2142857142857,0.044444444444444446,0.013750592697961118
AR,BLYTHEVILLE,4668,782,12,19768,23344,12760,10013,10696,765,0.07152206432311144,35.93,-89.92,0.1675235646958012,389,0.01568627450980392,0.4289324880054832
AR,BOONEVILLE,7716,1324,11,18994,8875,8507,153,3633,289,0.07954858243875584,35.13,-93.91,0.1715914981855884,701.4545454545455,0.03806228373702422,0.017239436619718308
AR,BRADFORD,5197,840,12,20579,3820,3766,31,1657,109,0.06578153289076645,35.42,-91.45,0.16163171060227055,433.0833333333333,0.11009174311926606,0.008115183246073299
AR,BRINKLEY,10164,1771,15,17961,3947,2083,1714,1918,221,0.11522419186652763,34.88,-91.18,0.17424242424242425,677.6,0.06787330316742081,0.43425386369394475
AR,BRYANT,13701,2702,9,31661,16497,13887,1801,9545,174,0.018229439497118912,34.61,-92.49,0.19721188234435444,1522.3333333333333,0.05172413793103448,0.10917136449051343
AR,CABOT,13738,2505,16,31137,36854,34121,407,18317,883,0.04820658404760605,34.96,-92.02,0.18234095210365409,858.625,0.01812004530011325,0.01104357735930971
AR,CALICO ROCK,8724,1532,13,16954,3259,3058,150,1142,66,0.05779334500875657,36.12,-92.13,0.1756075194864741,671.0769230769231,0.19696969696969696,0.04602638846271863
AR,CAMDEN,9690,1669,15,19253,19401,10859,8224,8565,618,0.07215411558669002,33.56,-92.84,0.1722394220846233,646,0.024271844660194174,0.42389567548064533
AR,CAVE CITY,8759,1461,11,18520,5074,4818,51,2169,61,0.028123559243891195,35.94,-91.54,0.16679986299805913,796.2727272727273,0.18032786885245902,0.010051241623965314
AR,CLARKSVILLE,6608,1113,10,19577,15356,13719,438,6729,351,0.0521622826571556,35.45,-93.47,0.1684322033898305,660.8,0.02849002849002849,0.028523052878353737
AR,CLINTON,9358,1597,15,17020,7312,7051,11,2803,187,0.06671423474848377,35.58,-92.45,0.1706561231032272,623.8666666666667,0.08021390374331551,0.0015043763676148797
AR,CONWAY,18113,3101,34,23953.436082021843,84319,66118,12891,44152,2645,0.05990668599383946,35.07,-92.46666666666667,0.1712030033677469,532.7352941176471,0.01285444234404537,0.15288369169463584
AR,CORNING,5072,817,12,16381,4741,4550,54,2028,43,0.021203155818540435,36.41,-90.58,0.16108044164037855,422.6666666666667,0.27906976744186046,0.01139000210925965
AR,DANVILLE,11403,1880,16,23931,4593,3383,80,1922,123,0.0639958376690947,35.05,-93.39,0.1648688941506621,712.6875,0.13008130081300814,0.017417809710428913
AR,DECATUR,10268,1731,17,23166,3605,3142,7,1339,29,0.021657953696788648,36.33,-94.45,0.1685820023373588,604,0.5862068965517241,0.001941747572815534
AR,DERMOTT,4410,789,10,16462,3650,1201,2320,1133,118,0.10414827890556046,33.52,-91.43,0.17891156462585034,441,0.0847457627118644,0.6356164383561644
AR,DOVER,6633,1078,10,21083,7382,7034,33,3426,162,0.047285464098073555,35.4,-93.11,0.1625207296849088,663.3,0.06172839506172839,0.004470333243023571
AR,DUMAS,3561,618,6,17515,5838,2377,3252,2329,212,0.09102619149849721,33.88,-91.48,0.17354675652906487,593.5,0.02830188679245283,0.5570400822199383
AR,EARLE,7923,1373,9,18466,3230,935,2242,1297,105,0.08095605242868158,35.27,-90.46,0.17329294459169506,880.3333333333334,0.08571428571428572,0.6941176470588235
AR,EL DORADO,9799,1567,20,21925,31663,20478,10401,14226,1224,0.08603964571910586,33.21,-92.66,0.15991427696703744,489.95,0.016339869281045753,0.32849066734042887
AR,ENGLAND,6079,1077,11,19660,4774,3300,1356,2095,199,0.09498806682577565,34.54,-91.96,0.17716729725283764,552.6363636363636,0.05527638190954774,0.28403854210305823
AR,FARMINGTON,3840,630,11,30476,7749,7095,0,4242,174,0.04101838755304102,36.04,-94.24,0.1640625,349.09090909090907,0.06321839080459771,0
AR,FAYETTEVILLE,27928,4727,53,24591.741961023145,98520,82137,5304,52027,2254,0.04332365886943318,36.07,-94.15,0.16925665998281295,526.9433962264151,0.023513753327417924,0.053836784409257
AR,FLIPPIN,5256,863,11,19628,4697,4499,17,1831,117,0.0638995084653195,36.27,-92.59,0.16419330289193304,477.8181818181818,0.09401709401709402,0.003619331488183947
AR,FORDYCE,5433,921,10,20125,5824,3078,2458,2403,166,0.0690803162713275,33.81,-92.41,0.1695196024295969,543.3,0.060240963855421686,0.4220467032967033
AR,FORREST CITY,3680,612,9,18297,19521,7617,10929,6895,729,0.10572878897751994,35.01,-90.78,0.16630434782608697,408.8888888888889,0.012345679012345678,0.5598586138005225
AR,FORT SMITH,28607,5037,48,21909.00830566604,91263,67689,8228,41597,2061,0.04954684232035964,35.36,-94.38,0.17607578564686965,595.9791666666666,0.023289665211062592,0.0901570187260993
AR,GASSVILLE,4059,759,7,19326,3833,3785,12,1699,130,0.07651559741024132,36.28,-92.49,0.18699186991869918,579.8571428571429,0.05384615384615385,0.0031307070180015655
AR,GRAVETTE,9045,1483,11,27336,6284,5760,16,2720,119,0.04375,36.42,-94.45,0.16395798783858484,822.2727272727273,0.09243697478991597,0.002546148949713558
AR,GREEN FOREST,12183,2317,8,21195,7430,6629,3,3507,208,0.05930995152552039,36.33,-93.42,0.19018304194369204,1522.875,0.038461538461538464,4.037685060565276e-4
AR,GREENBRIER,7805,1382,9,28475,16040,15481,142,7335,332,0.045262440354464896,35.22,-92.38,0.17706598334401025,867.2222222222222,0.02710843373493976,0.00885286783042394
AR,GREENWOOD,7881,1269,14,27275,14355,13902,6,7e3,225,0.03214285714285714,35.21,-94.23,0.16102017510468214,562.9285714285714,0.06222222222222222,4.179728317659352e-4
AR,HARRISON,9637,1554,16,20168,30184,29176,129,13835,991,0.07162992410552946,36.24,-93.11,0.161253502127218,602.3125,0.016145307769929364,0.004273787437052743
AR,HEBER SPRINGS,9017,1564,14,21969,12058,11753,87,5247,378,0.07204116638078903,35.5,-92.03,0.17345014971720085,644.0714285714286,0.037037037037037035,0.007215126886714215
AR,HELENA,4893,896,7,16848,5132,1737,3337,1952,299,0.15317622950819673,34.52,-90.6,0.18311874105865522,699,0.023411371237458192,0.6502338269680437
AR,HIWASSE,4207,730,7,37083,508,508,0,277,19,0.06859205776173286,36.43,-94.33,0.17352032327073924,601,0.3684210526315789,0
AR,HOPE,5618,904,11,18500,16806,10267,5274,6914,587,0.0849002024877061,33.66,-93.59,0.16091135635457457,510.72727272727275,0.018739352640545145,0.3138164941092467
AR,HOT SPRINGS NATIONAL PARK,14176,2444,15,21341.03549316823,74944,61904,7593,34636,3143,0.09074373484236055,34.5,-93.05,0.1724040632054176,945.0666666666667,0.004772510340439071,0.10131564901793338
AR,HOT SPRINGS VILLAGE,3811,664,8,25804,14566,14186,152,4038,161,0.039871223377909853,34.66,-93,0.17423248491209656,476.375,0.049689440993788817,0.010435260194974599
AR,JACKSONVILLE,7929,1413,18,24586,39118,25437,11545,18318,1121,0.06119663718746588,34.86,-92.12,0.1782065834279228,440.5,0.016057091882247992,0.2951326754946572
AR,JONESBORO,21528,3776,30,23049.508616391213,82227,63241,14006,40343,2351,0.058275289393451155,35.82,-90.68,0.17539947974730583,717.6,0.012760527435133985,0.17033334549478882
AR,JUNCTION CITY,7145,1184,10,18966,2238,1492,726,987,102,0.1033434650455927,33.02,-92.72,0.16571028691392584,714.5,0.09803921568627451,0.32439678284182305
AR,LAKE CITY,3210,566,9,17181,3808,3625,31,1655,102,0.06163141993957704,35.81,-90.44,0.1763239875389408,356.6666666666667,0.08823529411764706,0.008140756302521009
AR,LAVACA,5291,935,10,24537,5686,5095,36,2628,132,0.0502283105022831,35.33,-94.18,0.17671517671517672,529.1,0.07575757575757576,0.006331340133661625
AR,LITTLE ROCK,113925,20399,167,29157.248201820068,217025,116689,85294,109781,6636,0.060447618440349425,34.72,-92.35,0.1790563967522493,682.185628742515,0.025165762507534658,0.39301462965096184
AR,LONOKE,2971,465,6,29268,9984,8240,1442,5067,240,0.047365304914150384,34.78,-91.89,0.15651295859979805,495.1666666666667,0.025,0.14443108974358973
AR,LOWELL,10868,1804,20,30160,12488,10878,126,6428,160,0.024891101431238332,36.26,-94.13,0.1659919028340081,543.4,0.125,0.010089686098654708
AR,MABELVALE,4627,758,8,25059,12816,9660,2435,6285,504,0.0801909307875895,34.59,-92.38,0.16382105035660255,578.375,0.015873015873015872,0.1899968789013733
AR,MAGNOLIA,6844,1106,8,19105,16863,9568,6182,8038,589,0.07327693456083603,33.27,-93.23,0.16160140268848627,855.5,0.013582342954159592,0.36660143509458576
AR,MALVERN,8568,1460,12,20016,23597,19445,3708,10033,652,0.06498554769261437,34.37,-92.81,0.1704014939309057,714,0.018404907975460124,0.15713861931601475
AR,MANILA,1929,309,5,19649,4332,4096,11,1788,184,0.1029082774049217,35.88,-90.16,0.16018662519440124,385.8,0.02717391304347826,0.0025392428439519853
AR,MANSFIELD,14261,2358,10,21509,3555,3285,63,1609,74,0.04599129894344313,35.05,-94.24,0.16534604866418906,1426.1,0.13513513513513514,0.017721518987341773
AR,MARION,4012,695,8,32488,15982,10116,4949,8199,528,0.06439809732894256,35.2,-90.2,0.17323030907278167,501.5,0.015151515151515152,0.30966086847703667
AR,MARKED TREE,10134,1758,13,16761,2937,2060,637,1007,69,0.06852035749751738,35.53,-90.41,0.1734754292480758,779.5384615384615,0.18840579710144928,0.21688798093292475
AR,MARMADUKE,1839,303,6,22401,3103,3036,0,1248,99,0.07932692307692307,36.18,-90.38,0.16476345840130505,306.5,0.06060606060606061,0
AR,MARVELL,3420,646,5,19844,2072,985,1087,950,190,0.2,34.55,-90.91,0.18888888888888888,684,0.02631578947368421,0.5246138996138996
AR,MAUMELLE,6676,1174,8,36606,23716,17385,4972,12745,397,0.03114947038054139,34.85,-92.41,0.17585380467345715,834.5,0.020151133501259445,0.20964749536178107
AR,MENA,13813,2400,16,19050,14530,13715,19,5758,543,0.09430357763112192,34.58,-94.23,0.17374936653876782,863.3125,0.029465930018416207,0.0013076393668272539
AR,MONTICELLO,8801,1488,10,16731,15070,10198,4503,6979,957,0.1371256627023929,33.62,-91.79,0.16907169639813657,880.1,0.01044932079414838,0.29880557398805574
AR,MORRILTON,5484,997,11,19701,10835,8927,1616,4877,351,0.07197047365183515,35.15,-92.74,0.18180160466812545,498.54545454545456,0.03133903133903134,0.14914628518689432
AR,MOUNT IDA,4376,753,7,17997,3101,2840,53,1210,40,0.03305785123966942,34.55,-93.63,0.17207495429616088,625.1428571428571,0.175,0.01709126088358594
AR,MOUNTAIN HOME,8854,1603,16,21275,27546,26671,55,11239,583,0.051872942432600766,36.33,-92.37,0.18104811384684888,553.375,0.0274442538593482,0.001996660132142598
AR,MOUNTAIN VIEW,8713,1510,10,16282,8952,8779,10,3383,221,0.06532663316582915,35.87,-92.11,0.17330425800527946,871.3,0.04524886877828054,0.0011170688114387846
AR,NEWPORT,10471,1812,13,15961,11286,7881,2849,3225,271,0.08403100775193799,35.62,-91.23,0.17304937446280202,805.4615384615385,0.04797047970479705,0.2524366471734893
AR,NORTH LITTLE ROCK,28138,4950,41,24702.81180847667,72033,38318,29340,33583,2606,0.07759878509960397,34.78,-92.25,0.17591868647380765,686.2926829268292,0.015732924021488872,0.4073133147307484
AR,OLA,1124,204,6,18961,1914,1649,0,795,110,0.13836477987421383,35.03,-93.22,0.18149466192170818,187.33333333333334,0.05454545454545454,0
AR,OSCEOLA,9404,1658,15,16200,7958,3472,3882,3442,557,0.16182452062754213,35.7,-89.99,0.17630795406210123,626.9333333333333,0.026929982046678635,0.48781100779090225
AR,OZARK,7655,1262,11,18849,8907,8591,97,3800,347,0.09131578947368421,35.49,-93.84,0.16485956890920966,695.9090909090909,0.03170028818443804,0.010890310991355115
AR,PARAGOULD,1542,248,6,22703,37696,36126,411,17349,1321,0.07614271715949046,36.05,-90.51,0.1608300907911803,257,0.004542013626040878,0.010903013582342955
AR,PARIS,1622,257,5,20309,5660,5145,169,2421,174,0.07187112763320942,35.28,-93.72,0.15844636251541308,324.4,0.028735632183908046,0.029858657243816256
AR,PEA RIDGE,5479,916,10,28011,6872,6452,55,3367,126,0.037422037422037424,36.45,-94.11,0.16718379266289468,547.9,0.07936507936507936,0.0080034924330617
AR,PERRYVILLE,2556,419,4,23086,3785,3523,20,1590,106,0.06666666666666667,35,-92.8,0.16392801251956182,639,0.03773584905660377,0.005284015852047556
AR,PINE BLUFF,7550,1244,11,19906.20656176766,47792,13018,33269,19650,2033,0.10346055979643766,34.21,-92.01,0.1647682119205298,686.3636363636364,0.0054107230693556324,0.6961206896551724
AR,POCAHONTAS,6667,1158,9,19656,12513,12119,143,5126,100,0.019508388607101055,36.26,-90.96,0.17369131543422828,740.7777777777778,0.09,0.011428114760648925
AR,PRAIRIE GROVE,8801,1697,7,28033,8770,8299,0,4073,161,0.03952860299533514,35.97,-94.31,0.19281899784115442,1257.2857142857142,0.043478260869565216,0
AR,PRESCOTT,8815,1684,18,17450,5273,3288,1832,1905,159,0.08346456692913386,33.8,-93.38,0.19103800340328986,489.72222222222223,0.11320754716981132,0.3474303053290347
AR,ROGERS,33740,5795,53,28073.75892340586,79510,71439,1080,40209,1352,0.03362431296475913,36.33,-94.13,0.17175459395376408,636.6037735849056,0.03920118343195266,0.013583197082128034
AR,RUSSELLVILLE,10297,1796,16,19302.576620039275,41249,36630,1787,19504,1353,0.06937038556193602,35.27,-93.14,0.17441973390307858,643.5625,0.011825572801182557,0.04332226235787534
AR,SALEM,11713,1941,15,20107,4445,4136,9,2141,169,0.07893507706679122,36.37,-91.82,0.16571330999743875,780.8666666666667,0.08875739644970414,0.0020247469066366703
AR,SEARCY,7309,1247,19,19856,36945,32729,2400,16104,583,0.036202185792349725,35.24,-91.73,0.17061157477083047,384.6842105263158,0.032590051457975985,0.06496142915144133
AR,SHERIDAN,3194,540,8,25614,12161,11600,342,5679,296,0.05212185243880965,34.3,-92.4,0.16906700062617408,399.25,0.02702702702702703,0.028122687279006662
AR,SHERWOOD,10308,1752,15,31013,31719,24103,6160,17142,781,0.04556061136390153,34.83,-92.2,0.16996507566938301,687.2,0.019206145966709345,0.19420536586903747
AR,SILOAM SPRINGS,6107,1029,16,25042,22294,18529,292,10440,417,0.039942528735632185,36.18,-94.54,0.1684951694776486,381.6875,0.03836930455635491,0.013097694446936396
AR,SPRINGDALE,36941,6136,51,25319.583975181857,93480,62659,2422,44548,2214,0.04969920086199156,36.18,-94.14,0.16610270431228175,724.3333333333334,0.023035230352303523,0.02590928540864356
AR,STAR CITY,4376,709,3,20374,7303,6085,1007,2966,280,0.09440323668240054,33.94,-91.84,0.1620201096892139,1458.6666666666667,0.010714285714285714,0.13788853895659317
AR,STUTTGART,4892,1003,7,21423,10076,6367,3624,4745,415,0.0874604847207587,34.49,-91.55,0.20502861815208503,698.8571428571429,0.016867469879518072,0.3596665343390234
AR,TEXARKANA,12312,2264,18,22109,37027,25115,10603,17298,1432,0.08278413689443867,33.45,-94.01,0.1838856400259909,684,0.012569832402234637,0.28635860318146217
AR,VAN BUREN,13608,2489,16,22248,34520,30176,562,15318,1085,0.07083170126648387,35.44,-94.35,0.18290711346266902,850.5,0.014746543778801843,0.016280417149478563
AR,WARREN,5278,940,12,19850,8723,5211,2560,3522,340,0.09653605905735378,33.61,-92.06,0.17809776430466084,439.8333333333333,0.03529411764705882,0.2934770147884902
AR,WEST FORK,7118,1169,14,27225,5621,5460,23,2801,108,0.03855765797929311,35.93,-94.18,0.16423152570946895,508.42857142857144,0.12962962962962962,0.004091798612346558
AR,WEST MEMPHIS,3025,539,11,18627,25246,8345,15972,10595,1109,0.10467201510146296,35.14,-90.18,0.1781818181818182,275,0.009918845807033363,0.6326546779687872
AR,WYNNE,5319,876,8,22454,13136,9702,3153,5922,446,0.07531239446133063,35.23,-90.78,0.164692611393119,664.875,0.017937219730941704,0.24002740560292327
AR,YELLVILLE,4403,768,6,18717,5920,5743,42,2222,248,0.1116111611161116,36.22,-92.68,0.17442652736770384,733.8333333333334,0.024193548387096774,0.007094594594594595
AZ,AGUILA,5933,969,10,8438,1497,1318,0,842,75,0.08907363420427554,33.81,-113.18,0.16332378223495703,593.3,0.13333333333333333,0
AZ,APACHE JUNCTION,6309,1085,16,23696.92824953956,51038,46930,553,19262,1662,0.08628387498702107,33.39,-111.535,0.17197654144872404,394.3125,0.009626955475330927,0.010835064069908695
AZ,ARIZONA CITY,11463,1862,11,26220,10560,8688,261,4580,513,0.11200873362445415,32.73,-111.67,0.16243566256651837,1042.090909090909,0.021442495126705652,0.02471590909090909
AZ,ARLINGTON,6134,989,10,18345,753,672,0,327,60,0.1834862385321101,33.18,-112.79,0.1612324747310075,613.4,0.16666666666666666,0
AZ,AVONDALE,14502,2564,28,28067.57302159186,78826,56930,8639,39776,2478,0.062298873692679,33.455,-112.30000000000001,0.17680319955868157,517.9285714285714,0.011299435028248588,0.10959581863852029
AZ,BAPCHULE,5028,883,12,11755,2153,198,0,579,159,0.27461139896373055,32.98,-111.75,0.17561654733492443,419,0.07547169811320754,0
AZ,BENSON,6264,1192,10,21119,9052,8395,46,3154,196,0.062143310082435003,32.19,-110.38,0.19029374201787994,626.4,0.05102040816326531,0.005081749889527177
AZ,BOWIE,6529,1052,9,14190,404,275,0,175,12,0.06857142857142857,32.28,-109.5,0.16112727829682952,725.4444444444445,0.75,0
AZ,BUCKEYE,5020,804,8,29147.904866487817,71941,58831,5180,29119,1614,0.055427727600535735,33.47,-112.56,0.1601593625498008,627.5,0.004956629491945477,0.07200344726929012
AZ,BULLHEAD CITY,14244,2428,19,20263.16429044686,40751,35994,617,16281,1503,0.09231619679380873,35.115,-114.53,0.17045773659084526,749.6842105263158,0.012641383898868928,0.015140732742754778
AZ,CAMP VERDE,2405,428,7,21413,11723,9806,24,4641,409,0.08812755871579402,34.48,-111.78,0.17796257796257797,343.57142857142856,0.017114914425427872,0.002047257527936535
AZ,CASA GRANDE,8640,1522,19,23692.375099496883,66585,50168,2858,27875,2587,0.09280717488789238,32.89333333333333,-111.74,0.1761574074074074,454.7368421052632,0.007344414379590259,0.042922580160696854
AZ,CAVE CREEK,7079,1162,10,41935,28710,26835,135,14486,652,0.045008974181968794,33.8,-111.93,0.16414747845740923,707.9,0.015337423312883436,0.004702194357366771
AZ,CHANDLER,85732,14778,141,36131.14524550333,262583,205136,11780,138851,6572,0.047331311981908666,33.27666666666667,-111.865,0.17237437596230112,608.0283687943263,0.021454656116859403,0.04486200553729678
AZ,CHINO VALLEY,7099,1277,15,24131,15130,14038,9,6359,485,0.07626985375058971,34.77,-112.45,0.17988449077334837,473.26666666666665,0.030927835051546393,5.948446794448116e-4
AZ,CLARKDALE,2663,531,7,23018,4250,3679,24,1721,235,0.13654851830331202,34.79,-112.1,0.19939917386406308,380.42857142857144,0.029787234042553193,0.005647058823529412
AZ,COCHISE,9373,1532,12,20951,1263,1189,0,407,39,0.09582309582309582,32.06,-109.91,0.16344820228315374,781.0833333333334,0.3076923076923077,0
AZ,CONGRESS,2767,469,8,20875,1334,1288,0,342,27,0.07894736842105263,34.21,-112.97,0.1694976508854355,345.875,0.2962962962962963,0
AZ,COOLIDGE,9552,1585,10,20821,15982,11243,663,6248,846,0.1354033290653009,32.97,-111.49,0.16593383584589616,955.2,0.01182033096926714,0.04148416969090227
AZ,CORNVILLE,7594,1222,8,25869,4679,4599,31,2283,98,0.04292597459483136,34.73,-111.91,0.16091651303660784,949.25,0.08163265306122448,0.006625347296430861
AZ,COTTONWOOD,11050,1833,18,21452,25635,22391,255,11199,919,0.08206089829449058,34.75,-112.01,0.16588235294117648,613.8888888888889,0.01958650707290533,0.00994733762434172
AZ,DOUGLAS,4811,771,6,13112.016530113553,20871,16370,1243,4888,610,0.12479541734860884,31.53,-109.33,0.16025774267304094,801.8333333333334,0.009836065573770493,0.05955632216951751
AZ,EL MIRAGE,8685,1503,12,26588,33937,26712,2640,15673,1128,0.0719709053786767,33.59,-112.33,0.17305699481865286,723.75,0.010638297872340425,0.07779120134366621
AZ,ELFRIDA,5248,916,9,25775,1001,882,1,395,23,0.05822784810126582,31.73,-109.7,0.17454268292682926,583.1111111111111,0.391304347826087,9.99000999000999e-4
AZ,ELOY,2878,472,11,14120,18221,13040,1482,3900,406,0.1041025641025641,32.65,-111.59,0.16400277970813065,261.6363636363636,0.027093596059113302,0.08133472367049009
AZ,FLAGSTAFF,24222,4059,47,24518.839648960322,88537,69211,1981,48827,3063,0.06273168533803018,35.233333333333334,-111.55333333333333,0.167574931880109,515.3617021276596,0.01534443356186745,0.022374826343788474
AZ,FLORENCE,7879,1406,13,18422,35906,29431,2017,7654,913,0.11928403449176901,32.95,-111.23,0.1784490417565681,606.0769230769231,0.014238773274917854,0.05617445552275386
AZ,FORT DEFIANCE,5916,962,8,19227,6827,234,149,1860,174,0.0935483870967742,35.77,-109.11,0.16260987153482082,739.5,0.04597701149425287,0.021825106195986523
AZ,FORT HUACHUCA,3356,564,9,23735,5987,4489,566,3780,63,0.016666666666666666,31.52,-110.36,0.16805721096543505,372.8888888888889,0.14285714285714285,0.09453816602639051
AZ,FORT MCDOWELL,9099,1612,12,28750,1310,286,12,439,39,0.0888382687927107,33.75,-111.57,0.17716232553027805,758.25,0.3076923076923077,0.00916030534351145
AZ,FORT MOHAVE,6976,1161,10,22004,13789,12745,62,5931,724,0.12207047715393694,35,-114.56,0.16642775229357798,697.6,0.013812154696132596,0.004496337660453985
AZ,FOUNTAIN HILLS,9216,1534,17,38219,24139,22829,506,11367,516,0.04539456320929005,33.6,-111.74,0.1664496527777778,542.1176470588235,0.03294573643410853,0.02096192882886615
AZ,FREDONIA,9206,1515,12,20867,2096,1579,0,992,80,0.08064516129032258,36.74,-112.11,0.16456658700847274,767.1666666666666,0.15,0
AZ,GILA BEND,6405,1131,8,22287,2790,2246,52,1133,88,0.07766990291262135,32.99,-112.9,0.1765807962529274,800.625,0.09090909090909091,0.01863799283154122
AZ,GILBERT,55817,9964,78,40032.417373846,230611,193532,7035,118514,5307,0.044779519719189295,33.3,-111.745,0.17851192289087553,715.6025641025641,0.014697569248162803,0.030505916890347814
AZ,GLENDALE,54540,9818,77,27434.79364631589,294223,235525,16330,145493,9400,0.06460791928133999,33.58555555555556,-112.20444444444445,0.18001466813348002,708.3116883116883,0.008191489361702128,0.05550211914092372
AZ,GLOBE,5204,861,12,19944,13342,11864,189,5695,452,0.07936786654960491,33.62,-110.7,0.16544965411222137,433.6666666666667,0.02654867256637168,0.01416579223504722
AZ,GOLD CANYON,11442,1986,22,31312,11572,11139,39,3775,314,0.08317880794701987,33.34,-111.42,0.17357105401153644,520.0909090909091,0.07006369426751592,0.0033702039405461457
AZ,GOLDEN VALLEY,8060,1366,12,17484,14985,12009,673,3167,530,0.16735080517840228,35.13,-114.25,0.1694789081885856,671.6666666666666,0.022641509433962263,0.04491157824491158
AZ,GOODYEAR,11197,1878,15,34872.76733905521,73519,55731,6860,32950,1200,0.036418816388467376,33.42,-112.38499999999999,0.16772349736536574,746.4666666666667,0.0125,0.09330921258450196
AZ,GREEN VALLEY,8556,1413,13,28192.092960992304,29507,28659,225,5979,271,0.04532530523498913,31.8,-110.955,0.16514726507713884,658.1538461538462,0.04797047970479705,0.0076253092486528624
AZ,HOLBROOK,5896,1034,8,18519,5609,3378,137,2412,146,0.06053067993366501,34.94,-110.09,0.17537313432835822,737,0.0547945205479452,0.024425031199857374
AZ,HUACHUCA CITY,5295,1057,9,22816,5375,4364,166,2381,121,0.05081898362032759,31.73,-110.31,0.1996222851746931,588.3333333333334,0.0743801652892562,0.030883720930232558
AZ,KAYENTA,8737,1450,8,15090,7354,294,13,2192,356,0.1624087591240876,36.64,-110.18,0.1659608561291061,1092.125,0.02247191011235955,0.0017677454446559696
AZ,KINGMAN,10227,1762,20,20589.838635217442,51554,46444,468,20065,2443,0.12175429852977822,35.24,-113.885,0.17228903881881294,511.35,0.008186655751125664,0.009077860107848081
AZ,KYKOTSMOVI VILLAGE,14452,2623,15,14764,1203,9,5,409,33,0.08068459657701711,35.91,-110.53,0.1814973706061445,963.4666666666667,0.45454545454545453,0.004156275976724855
AZ,LAKE HAVASU CITY,11239,1850,18,23702.65571959602,57032,52933,174,22854,1992,0.08716198477290628,34.51,-114.28666666666666,0.1646053919387846,624.3888888888889,0.009036144578313253,0.0030509187824379297
AZ,LAKESIDE,3860,657,11,21102,7579,6750,14,3065,215,0.0701468189233279,34.1,-110.08,0.17020725388601035,350.90909090909093,0.05116279069767442,0.0018472093943792058
AZ,LAVEEN,6473,1071,9,30818,43651,21757,8034,20750,1834,0.0883855421686747,33.3,-112.2,0.16545651166383438,719.2222222222222,0.004907306434023991,0.18405076630546838
AZ,LITCHFIELD PARK,8594,1505,12,40498,30756,24627,2339,15127,546,0.036094400740397964,33.51,-112.36,0.17512217826390505,716.1666666666666,0.02197802197802198,0.07605020158668227
AZ,LITTLEFIELD,5303,960,9,22477,3439,3140,0,1263,171,0.13539192399049882,36.9,-113.94,0.1810296058834622,589.2222222222222,0.05263157894736842,0
AZ,MARANA,9582,1653,22,30717.99139543584,26730,22497,670,11549,682,0.059052731838254394,32.480000000000004,-111.225,0.17251095804633687,435.54545454545456,0.03225806451612903,0.025065469509913955
AZ,MARICOPA,10422,1687,16,30107.67294214137,53648,38892,5213,25630,1593,0.06215372610222396,32.995,-112.03999999999999,0.16186912300901937,651.375,0.010043942247332079,0.09717044437816881
AZ,MESA,129234,22238,185,26695.414471040363,512610,436786,17431,248128,16225,0.0653896376063967,33.41615384615385,-111.71538461538461,0.17207546001826146,698.5621621621622,0.01140215716486903,0.03400440880981643
AZ,MIAMI,8807,1561,13,22183,5132,4780,0,2202,238,0.1080835603996367,33.4,-110.97,0.17724537299875098,677.4615384615385,0.0546218487394958,0
AZ,NOGALES,13213,2261,15,15606,22548,18691,146,9092,1129,0.12417509898812143,31.45,-110.83,0.17111935215318247,880.8666666666667,0.013286093888396812,0.0064750753947135
AZ,PAGE,8414,1570,12,26180,10920,4087,32,5735,789,0.13757628596338273,36.68,-111.41,0.18659377228428808,701.1666666666666,0.015209125475285171,0.0029304029304029304
AZ,PARADISE VALLEY,17356,2942,23,56902,17461,15896,204,7935,155,0.019533711405166982,33.54,-111.96,0.16950910348006454,754.6086956521739,0.14838709677419354,0.01168317965752248
AZ,PARKER,7540,1214,15,20644,10015,5991,77,4300,399,0.09279069767441861,33.99,-114.23,0.1610079575596817,502.6666666666667,0.03759398496240601,0.0076884672990514226
AZ,PAULDEN,6664,1204,12,22651,4516,4155,0,2230,146,0.06547085201793722,34.9,-112.43,0.18067226890756302,555.3333333333334,0.0821917808219178,0
AZ,PAYSON,8428,1370,17,22390,21576,19992,99,8004,569,0.07108945527236382,34.19,-111.17,0.16255339345040343,495.7647058823529,0.029876977152899824,0.004588431590656285
AZ,PEACH SPRINGS,6609,1193,11,16555,1478,248,3,561,102,0.18181818181818182,35.64,-113.61,0.18051142381600846,600.8181818181819,0.10784313725490197,0.0020297699594046007
AZ,PEORIA,35404,6475,43,33702.75974469474,165449,140479,5784,82467,4692,0.05689548546691404,33.6475,-112.24,0.18288893910292622,823.3488372093024,0.009164535379369138,0.03495941347484723
AZ,PHOENIX,530386,93189,839,27346.78022225212,1404801,1014219,93662,697668,51014,0.07312073937746894,33.521904761904764,-112.08119047619047,0.17570033899838985,632.1644815256258,0.016446465676088918,0.0666727885301904
AZ,PRESCOTT,20433,3351,34,26081.367837370544,57259,53868,362,22437,1752,0.07808530552212863,34.6025,-112.55,0.16399941271472618,600.9705882352941,0.019406392694063926,0.00632215022965822
AZ,PRESCOTT VALLEY,16372,2773,21,23306.23950129778,45077,41446,284,19439,1408,0.07243170945007459,34.675,-112.295,0.16937454190080625,779.6190476190476,0.014914772727272728,0.006300330545511015
AZ,QUEEN CREEK,11256,1923,19,35599,55931,48377,1563,25608,820,0.03202124336144955,33.16,-111.59,0.17084221748400852,592.421052631579,0.023170731707317073,0.027945146698610788
AZ,RIO RICO,7506,1541,10,25739,18673,15924,48,7995,582,0.07279549718574109,31.5,-111.06,0.20530242472688515,750.6,0.01718213058419244,0.0025705564183580573
AZ,SAFFORD,10543,1720,13,25132,20422,18111,629,7382,776,0.1051205635329179,32.7,-109.65,0.163141420847956,811,0.01675257731958763,0.030800117520321222
AZ,SAHUARITA,10035,1747,15,36425,24752,21298,838,11043,375,0.03395816354251562,31.91,-110.9,0.174090682610862,669,0.04,0.03385585003232062
AZ,SAN LUIS,10688,1792,12,15824,29377,22985,0,12930,2157,0.1668213457076566,32.49,-114.77,0.16766467065868262,890.6666666666666,0.005563282336578581,0
AZ,SAN MANUEL,8469,1427,13,24164,3739,3600,1,1357,201,0.14812085482682388,32.62,-110.59,0.16849687094107924,651.4615384615385,0.06467661691542288,2.674511901577962e-4
AZ,SAN SIMON,11291,2105,12,23182,844,751,9,358,15,0.04189944134078212,32,-109.21,0.1864316712425826,940.9166666666666,0.8,0.01066350710900474
AZ,SAN TAN VALLEY,11192,1830,16,29473.25549267852,79697,67206,4216,35974,2725,0.07574915216545283,33.165,-111.565,0.1635096497498213,699.5,0.005871559633027523,0.05290036011393152
AZ,SCOTTSDALE,169490,29497,267,42143.492951803026,286740,249843,4293,153241,6733,0.04393732747763327,33.584545454545456,-111.86818181818182,0.17403386630479675,634.7940074906367,0.03965542848655874,0.014971751412429379
AZ,SEDONA,12568,2108,21,29873.640734707635,17803,16648,104,8019,439,0.0547449806709066,34.845,-111.85499999999999,0.16772756206238065,598.4761904761905,0.04783599088838269,0.00584171207099927
AZ,SHOW LOW,14899,2501,22,21626,17466,16099,29,7017,603,0.08593415989739205,34.23,-110.07,0.16786361500771863,677.2272727272727,0.03648424543946932,0.00166036871636322
AZ,SIERRA VISTA,7820,1350,19,28787.617806336893,49488,39398,2895,21708,1569,0.072277501381979,31.545,-110.19,0.17263427109974425,411.57894736842104,0.012109623964308477,0.058499030067895245
AZ,SNOWFLAKE,6267,1014,13,19939,7592,7167,30,2611,234,0.08962083492914592,34.64,-110.11,0.1617999042604117,482.0769230769231,0.05555555555555555,0.003951527924130664
AZ,SOMERTON,5862,1020,10,16427,22173,17131,523,8586,994,0.11576985790822268,32.53,-114.71,0.17400204708290687,586.2,0.01006036217303823,0.023587245749334778
AZ,SPRINGERVILLE,8289,1349,15,21955,1853,1643,0,794,81,0.10201511335012595,34.04,-109.2,0.16274580769694777,552.6,0.18518518518518517,0
AZ,STANFIELD,7446,1229,11,18672,1471,850,0,717,79,0.1101813110181311,32.93,-111.92,0.16505506312113888,676.9090909090909,0.13924050632911392,0
AZ,SUN CITY,11682,2024,16,24089.266908187557,48305,45314,1172,11337,545,0.048072682367469345,33.64,-112.295,0.17325800376647835,730.125,0.029357798165137616,0.024262498706138082
AZ,SUN CITY WEST,6776,1166,11,26148,27701,27146,236,4007,198,0.04941352632892438,33.67,-112.36,0.17207792207792208,616,0.05555555555555555,0.008519548030757012
AZ,SUPERIOR,8542,1591,11,19395,2940,2501,18,1187,112,0.09435551811288964,33.28,-111.1,0.18625614610161553,776.5454545454545,0.09821428571428571,0.006122448979591836
AZ,SURPRISE,26516,4726,36,32356.084595862492,130030,110173,8267,55576,3934,0.0707859507701166,33.64,-112.4025,0.17823201086136672,736.5555555555555,0.009150991357397052,0.06357763593016996
AZ,TEMPE,138922,24660,208,25990.871595459874,180788,123263,10523,106737,6148,0.057599520316291446,33.379999999999995,-111.9225,0.17750968169188466,667.8942307692307,0.03383214053350683,0.05820629687811138
AZ,THATCHER,7976,1323,11,24163,6503,6008,36,2758,212,0.07686729514140682,32.82,-109.78,0.1658726178535607,725.0909090909091,0.05188679245283019,0.005535906504690143
AZ,TOLLESON,7071,1281,13,27567,37983,29574,2969,17943,1175,0.06548514741124672,33.42,-112.27,0.18116249469664827,543.9230769230769,0.011063829787234043,0.07816654819261248
AZ,TONOPAH,5309,879,12,23180,7053,6612,30,2856,416,0.14565826330532214,33.57,-113.02,0.16556790355999246,442.4166666666667,0.028846153846153848,0.004253509145044662
AZ,TONTO BASIN,2949,509,7,23898,1564,1561,1,423,19,0.04491725768321513,33.83,-111.26,0.17260088165479823,421.2857142857143,0.3684210526315789,6.393861892583121e-4
AZ,TUBA CITY,5876,952,10,21625,12085,311,0,4376,306,0.06992687385740402,36.09,-111.13,0.16201497617426822,587.6,0.032679738562091505,0
AZ,TUCSON,156217,27331,264,25110.218305359384,893629,685747,32559,432597,36746,0.08494279895607228,32.2275,-110.9525,0.17495535057004039,591.7310606060606,0.007184455450933435,0.03643458303166079
AZ,VAIL,7729,1286,9,38908,25716,22594,1036,12718,683,0.05370341248623998,31.95,-110.69,0.16638633717169105,858.7777777777778,0.013177159590043924,0.040286203142012755
AZ,WHITERIVER,6529,1250,7,14002,11025,203,26,4225,1830,0.4331360946745562,33.8,-110.09,0.191453515086537,932.7142857142857,0.003825136612021858,0.00235827664399093
AZ,WICKENBURG,5271,842,7,21926,8665,8364,20,3317,29,0.008742839915586373,33.9,-112.9,0.15974198444317966,753,0.2413793103448276,0.002308136180034622
AZ,WILLCOX,6382,1029,10,20885,8702,7194,84,3531,227,0.06428773718493344,32.43,-109.88,0.16123472265747416,638.2,0.04405286343612335,0.009652953344058838
AZ,WILLIAMS,5148,836,10,25957,5628,4520,45,2808,113,0.04024216524216524,35.37,-112.26,0.1623931623931624,514.8,0.08849557522123894,0.007995735607675906
AZ,WINSLOW,2489,416,8,14127,15682,4368,528,5618,1346,0.2395870416518334,35.1,-110.64,0.16713539574126154,311.125,0.005943536404160475,0.033669174850146665
AZ,YOUNG,13140,2163,13,20250,516,510,0,135,6,0.044444444444444446,34.08,-111.01,0.16461187214611872,1010.7692307692307,2.1666666666666665,0
AZ,YOUNGTOWN,6851,1116,8,21496,6563,5407,263,2830,440,0.15547703180212014,33.58,-112.3,0.16289592760180996,856.375,0.01818181818181818,0.0400731372847783
AZ,YUCCA,4913,791,10,14131,963,720,56,233,64,0.27467811158798283,34.76,-114.01,0.16100142479136983,491.3,0.15625,0.058151609553478714
AZ,YUMA,21291,3835,28,23040.270418806438,144291,103218,3530,62711,6396,0.1019916761014814,32.693333333333335,-114.51666666666667,0.18012305669062045,760.3928571428571,0.004377736085053158,0.024464450312216286
CA,ACAMPO,8300,1448,11,24862,7371,5960,2,3459,326,0.0942468921653657,38.19,-121.25,0.1744578313253012,754.5454545454545,0.03374233128834356,2.71333604666938e-4
CA,ADELANTO,9509,1808,11,14914,32801,19972,6068,10053,2031,0.20202924500149208,34.66,-117.51,0.1901356609527816,864.4545454545455,0.0054160512063023145,0.18499435992805097
CA,AGOURA HILLS,24627,4438,30,43485,26007,22449,510,13824,612,0.044270833333333336,34.12,-118.76,0.1802087140130751,820.9,0.049019607843137254,0.019610104971738377
CA,ALAMEDA,20815,3419,28,44108.71057628958,77409,37673,5963,42870,2524,0.05887567063214369,37.75,-122.255,0.16425654576026905,743.3928571428571,0.011093502377179081,0.07703238641501634
CA,ALAMO,6191,1061,8,65551,16205,14433,116,7113,267,0.03753690425980599,37.84,-121.97,0.17137780649329673,773.875,0.0299625468164794,0.007158284480098735
CA,ALBANY,9234,1654,10,45678,20735,11327,834,10794,590,0.05465999629423754,37.88,-122.29,0.1791206411089452,923.4,0.01694915254237288,0.040221847118398844
CA,ALHAMBRA,15760,2675,27,24197.922611393584,84767,19331,1563,43806,2512,0.05734374286627403,34.08,-118.13499999999999,0.16973350253807107,583.7037037037037,0.010748407643312101,0.018438779241921974
CA,ALISO VIEJO,17886,2937,26,52209,52335,36389,1386,30534,1625,0.05321936202266326,33.57,-117.72,0.16420664206642066,687.9230769230769,0.016,0.02648323301805675
CA,ALPINE,7273,1172,12,34008,18586,16590,257,9311,323,0.034690151433787994,32.8,-116.71,0.1611439571016087,606.0833333333334,0.03715170278637771,0.013827612181211665
CA,ALTADENA,8727,1409,10,33030,37699,19244,9583,20559,1279,0.062211197042657713,34.2,-118.13,0.1614529620717314,872.7,0.007818608287724784,0.25419772407756175
CA,AMERICAN CANYON,8534,1490,13,31587,20366,8228,1612,10498,852,0.08115831586968947,38.18,-122.25,0.17459573470822592,656.4615384615385,0.015258215962441314,0.07915152705489542
CA,ANAHEIM,96606,16545,165,26803.243996049492,364510,252674,8165,189790,14356,0.07564149849834027,33.82857142857143,-117.87428571428572,0.17126265449350972,585.4909090909091,0.0114934522151017,0.02239993415818496
CA,ANDERSON,11191,1838,15,20594,23354,20914,137,9540,825,0.08647798742138364,40.44,-122.35,0.16423912072200875,746.0666666666667,0.01818181818181818,0.005866232765265051
CA,ANGELS CAMP,7644,1295,11,26257,4976,4765,0,1962,46,0.023445463812436288,38.04,-120.61,0.16941391941391942,694.9090909090909,0.2391304347826087,0
CA,ANTELOPE,3367,542,12,30213,47666,30476,3073,23403,1798,0.0768277571251549,38.71,-121.36,0.16097416097416098,280.5833333333333,0.006674082313681869,0.06446943313892502
CA,ANTIOCH,15785,2640,22,28035.227117552335,108675,49992,21402,52856,4875,0.09223172392916604,37.975,-121.785,0.1672473867595819,717.5,0.0045128205128205125,0.19693581780538302
CA,ANZA,3714,659,8,16827,3775,3040,1,1358,254,0.187039764359352,33.53,-116.68,0.17743672590199247,464.25,0.031496062992125984,2.6490066225165563e-4
CA,APPLE VALLEY,17923,3103,18,22229.866511132524,78868,63276,6063,31538,3996,0.12670429323355953,34.495000000000005,-117.14500000000001,0.1731294984098644,995.7222222222222,0.0045045045045045045,0.07687528528680834
CA,APTOS,10218,1669,18,41071,25187,22702,311,13376,735,0.05494916267942584,37,-121.87,0.16333920532393814,567.6666666666666,0.024489795918367346,0.012347639655377773
CA,ARBUCKLE,4110,747,9,27018,4693,4367,0,2468,246,0.09967585089141005,39.02,-122.04,0.18175182481751825,456.6666666666667,0.036585365853658534,0
CA,ARCADIA,9828,1632,15,34601.134222555265,66725,20126,1103,32769,1909,0.058256278800085444,34.125,-118.035,0.16605616605616605,655.2,0.00785751702462022,0.016530535781191458
CA,ARCATA,9678,1765,15,14201,20911,16762,467,11647,1728,0.14836438567871554,40.85,-124.05,0.18237239098987393,645.2,0.008680555555555556,0.022332743532112287
CA,ARNOLD,5049,803,9,29502,2884,2793,0,1120,84,0.075,38.35,-120.2,0.15904139433551198,561,0.10714285714285714,0
CA,ARROYO GRANDE,7329,1197,12,33364,30022,26068,159,14221,744,0.05231699599184305,35.16,-120.43,0.16332378223495703,610.75,0.016129032258064516,0.005296116181466924
CA,ARTESIA,7675,1278,15,22003,16842,6585,426,8024,409,0.05097208374875374,33.86,-118.08,0.16651465798045603,511.6666666666667,0.03667481662591687,0.025293908086925544
CA,ARVIN,7116,1163,10,16594,22106,19172,350,9545,1181,0.12372970141435306,35.08,-118.79,0.1634345137717819,711.6,0.00846740050804403,0.015832805573147563
CA,ATASCADERO,8224,1330,11,33584,33270,30380,348,16630,643,0.038665063138905595,35.45,-120.71,0.1617217898832685,747.6363636363636,0.017107309486780714,0.010459873760144274
CA,ATHERTON,3465,583,11,70189,7317,5722,31,2951,175,0.05930193154862758,37.44,-122.2,0.16825396825396827,315,0.06285714285714286,0.004236709033757004
CA,ATWATER,6075,1032,9,24124,38356,22528,1413,16238,1815,0.11177484911934968,37.32,-120.63,0.16987654320987655,675,0.0049586776859504135,0.03683908645322766
CA,AUBURN,13497,2288,22,30593.907767604742,47402,43342,270,21289,1335,0.06270844097890929,38.94,-121.07333333333334,0.16951915240423798,613.5,0.01647940074906367,0.005695962195687946
CA,AVALON,5708,921,10,27079,3912,2982,8,2243,66,0.029424877396344182,33.38,-118.45,0.16135248773651015,570.8,0.15151515151515152,0.002044989775051125
CA,AVENAL,6197,1123,12,16574,13590,5806,911,4039,554,0.13716266402574895,35.92,-120.1,0.1812167177666613,516.4166666666666,0.021660649819494584,0.0670345842531273
CA,AZUSA,9013,1651,14,21024,61968,27058,1682,31809,2529,0.07950580024521361,34.17,-117.87,0.18317985132586265,643.7857142857143,0.0055357848952155,0.0271430415698425
CA,BAKERSFIELD,78681,13854,101,26111.137365937833,549372,389511,33091,249563,27127,0.10869800411118635,35.336363636363636,-119.03454545454545,0.17607808746711404,779.019801980198,0.0037232277804401517,0.06023423108567601
CA,BALDWIN PARK,8602,1507,17,20519,77667,27093,1612,37370,3167,0.08474712336098475,34.09,-117.96,0.17519181585677748,506,0.0053678560151563,0.02075527572843035
CA,BANNING,5427,903,12,20624,33101,23013,2646,11600,1479,0.1275,33.92,-116.83,0.1663902708678828,452.25,0.008113590263691683,0.07993716201927434
CA,BARSTOW,5306,903,10,20505,33962,23598,4147,14005,1847,0.13188147090324884,34.97,-116.99,0.17018469656992086,530.6,0.005414185165132647,0.12210706083269536
CA,BASS LAKE,10409,1703,14,29097,708,550,28,206,30,0.14563106796116504,37.38,-119.51,0.1636084157940244,743.5,0.4666666666666667,0.03954802259887006
CA,BEALE AFB,3480,595,8,21250,1622,1092,219,975,40,0.041025641025641026,39.12,-121.39,0.17097701149425287,435,0.2,0.13501849568434032
CA,BEAUMONT,11890,2120,13,31026,49804,35438,2415,21928,1472,0.06712878511492155,33.94,-116.97,0.17830109335576114,914.6153846153846,0.008831521739130434,0.04849008111798249
CA,BELL GARDENS,10947,2074,15,17415,102786,73345,1019,47353,5088,0.10744831372880283,33.97,-118.15,0.1894582990773728,729.8,0.00294811320754717,0.009913801490475356
CA,BELLFLOWER,18097,3163,29,25801,77687,27869,10553,36393,2777,0.07630588299947792,33.88,-118.13,0.17478035033430955,624.0344827586207,0.010442924018725243,0.13583997322589364
CA,BELMONT,11653,1871,23,56108,27116,17268,336,14674,645,0.04395529507973286,37.5,-122.3,0.1605595125718699,506.6521739130435,0.03565891472868217,0.012391208142793922
CA,BELVEDERE TIBURON,159,26,2,73750,12725,11506,56,6222,280,0.04500160720025715,37.89,-122.47,0.16352201257861634,79.5,0.007142857142857143,0.004400785854616896
CA,BENICIA,8046,1335,20,45562,27786,19893,1602,14767,864,0.05850883727229634,38.11,-122.13,0.16592095451155853,402.3,0.023148148148148147,0.05765493413949471
CA,BERKELEY,32385,5646,48,36482.14605492554,125042,77820,10036,69480,4467,0.06429188255613126,37.87111111111111,-122.26555555555555,0.17433997220935618,674.6875,0.010745466756212223,0.0802610322931495
CA,BEVERLY HILLS,54066,9331,66,54057.543820385225,42001,34902,503,21843,1422,0.06510094767202307,34.07,-118.39666666666666,0.1725853586357415,819.1818181818181,0.046413502109704644,0.011975905335587247
CA,BIG BEAR CITY,8003,1327,11,23e3,11997,11229,72,5639,632,0.11207660932789501,34.26,-116.84,0.16581282019242785,727.5454545454545,0.01740506329113924,0.006001500375093774
CA,BIG BEAR LAKE,5918,1023,9,26977,5282,4853,66,2324,176,0.0757314974182444,34.23,-116.86,0.17286245353159851,657.5555555555555,0.05113636363636364,0.012495266944339266
CA,BIG SUR,15062,3045,9,32171,1082,999,2,603,49,0.0812603648424544,36.08,-121.6,0.20216438719957508,1673.5555555555557,0.1836734693877551,0.0018484288354898336
CA,BISHOP,7865,1320,12,27460,13976,11719,131,6673,287,0.04300914131575004,37.5,-118.31,0.16783216783216784,655.4166666666666,0.041811846689895474,0.009373211219232971
CA,BLOOMINGTON,10168,1662,14,20687,30231,15733,1178,14021,1716,0.12238784680122673,34.06,-117.39,0.1634539732494099,726.2857142857143,0.008158508158508158,0.038966623664450396
CA,BLYTHE,3983,674,9,13402,22242,13247,2635,7460,971,0.13016085790884718,33.75,-114.51,0.16921918152146623,442.55555555555554,0.009268795056642637,0.11846956208974013
CA,BODEGA BAY,11779,1996,13,63462,737,721,0,493,16,0.032454361054766734,38.35,-123.06,0.16945411325239834,906.0769230769231,0.8125,0
CA,BONITA,6614,1208,9,35588,19429,13996,726,10069,817,0.08114013308173602,32.67,-117.01,0.18264287874206228,734.8888888888889,0.011015911872705019,0.037366822790673736
CA,BONSALL,8631,1407,13,33165,4905,3798,130,2361,122,0.05167301990681914,33.28,-117.19,0.1630170316301703,663.9230769230769,0.10655737704918032,0.026503567787971458
CA,BOONVILLE,4782,838,7,14435,1312,1182,0,719,52,0.07232267037552156,38.99,-123.36,0.1752404851526558,683.1428571428571,0.1346153846153846,0
CA,BORON,11538,2010,11,19732,2314,1687,149,764,117,0.1531413612565445,34.96,-117.67,0.17420696827873114,1048.909090909091,0.09401709401709402,0.06439066551426102
CA,BORREGO SPRINGS,3776,614,6,19208,2520,2157,121,1090,246,0.22568807339449543,33.17,-116.27,0.16260593220338984,629.3333333333334,0.024390243902439025,0.04801587301587302
CA,BRAWLEY,5479,894,11,16788,27120,21346,378,11203,2235,0.19950013389270732,33.02,-115.45,0.16316846139806535,498.09090909090907,0.004921700223713647,0.013938053097345133
CA,BREA,35389,6287,58,40685.975320567,41411,28588,655,22751,1396,0.06135994022240781,33.92,-117.83,0.17765407329961289,610.1551724137931,0.04154727793696275,0.01581705343990727
CA,BRENTWOOD,29534,5332,30,35819,59444,42102,4330,28513,1829,0.06414617893592396,37.87,-121.68,0.18053768537956255,984.4666666666667,0.016402405686167305,0.0728416661059148
CA,BRIDGEPORT,4578,831,13,31979,909,472,7,502,107,0.21314741035856574,38.27,-119.33,0.18152031454783749,352.15384615384613,0.12149532710280374,0.007700770077007701
CA,BRISBANE,5125,877,12,42354,4568,2304,147,2693,145,0.05384329743780171,37.68,-122.41,0.1711219512195122,427.0833333333333,0.08275862068965517,0.032180385288966724
CA,BUELLTON,6947,1250,9,33560,5662,4740,129,3156,143,0.04531051964512041,34.61,-120.22,0.1799337843673528,771.8888888888889,0.06293706293706294,0.022783468738961497
CA,BUENA PARK,23461,4284,36,26194.70567072126,81718,46043,2434,40893,2137,0.05225833272198176,33.855000000000004,-117.995,0.18260091215208218,651.6944444444445,0.016846045858680395,0.029785359406740253
CA,BURBANK,51516,9172,77,34236.22292917056,108133,77263,2691,60307,4863,0.08063740527633607,34.18,-118.312,0.1780417734296141,669.038961038961,0.015833847419288505,0.024886019993896405
CA,BURLINGAME,29089,4954,38,60581,42569,26927,570,21967,995,0.04529521555059862,37.56,-122.37,0.17030492626078586,765.5,0.03819095477386935,0.013390025605487561
CA,BURNEY,8733,1482,10,22250,4538,4270,34,1821,141,0.07742998352553541,40.94,-121.74,0.16970113363105463,873.3,0.07092198581560284,0.00749228735125606
CA,BYRON,1926,300,6,30737,1358,1261,16,629,47,0.07472178060413355,37.85,-121.62,0.1557632398753894,321,0.1276595744680851,0.011782032400589101
CA,CABAZON,7923,1406,13,14315,4088,2627,68,1429,366,0.2561231630510847,33.93,-116.77,0.1774580335731415,609.4615384615385,0.03551912568306011,0.016634050880626222
CA,CALABASAS,13109,2158,26,50023,25906,21279,467,12826,678,0.05286137533135818,34.11,-118.67,0.16461972690517965,504.1923076923077,0.038348082595870206,0.018026711958619625
CA,CALEXICO,6877,1271,12,14456,40070,32445,67,16562,3079,0.18590749909431228,32.69,-115.51,0.1848189617565799,573.0833333333334,0.003897369275738876,0.001672073870726229
CA,CALIFORNIA CITY,12133,2013,16,19848,13324,8323,2788,5092,1157,0.2272191673212883,35.15,-117.92,0.1659111514052584,758.3125,0.013828867761452032,0.20924647253077153
CA,CALIMESA,9185,1595,11,24650,8364,7402,93,3277,376,0.11473909063167531,33.97,-117.05,0.17365269461077845,835,0.02925531914893617,0.011119081779053085
CA,CALIPATRIA,4812,818,14,2499,7770,3212,1208,1330,206,0.1548872180451128,33.13,-115.52,0.16999168744804655,343.7142857142857,0.06796116504854369,0.15546975546975547
CA,CALISTOGA,9328,1727,16,27647,7379,5950,33,3901,134,0.03435016662394258,38.62,-122.61,0.18514150943396226,583,0.11940298507462686,0.004472150697926548
CA,CAMARILLO,22871,3812,39,37999.56130475303,80475,62409,1975,41358,2193,0.05302480777600464,34.215,-119.025,0.16667395391543877,586.4358974358975,0.017783857729138167,0.024541783162472817
CA,CAMBRIA,12040,1987,13,30207,6309,5662,31,2642,167,0.0632096896290689,35.59,-121.01,0.16503322259136213,926.1538461538462,0.07784431137724551,0.004913615469963544
CA,CAMPBELL,19033,3232,34,46506,46507,30878,1490,27451,1190,0.0433499690357364,37.28,-121.95,0.16981032942783586,559.7941176470588,0.02857142857142857,0.03203818779968607
CA,CANOGA PARK,16709,2926,27,24325.12228227937,82514,44199,3542,44310,2733,0.06167907921462424,34.205,-118.595,0.17511520737327188,618.8518518518518,0.009879253567508232,0.04292604891291175
CA,CANYON COUNTRY,8474,1431,8,34111.505927371916,77353,52262,3956,41485,3060,0.07376160057852235,34.415,-118.43,0.16886948312485248,1059.25,0.00261437908496732,0.0511421664318126
CA,CAPITOLA,5234,874,17,35693,9375,7956,77,5275,194,0.036777251184834124,36.97,-121.95,0.16698509743981657,307.88235294117646,0.08762886597938144,0.008213333333333333
CA,CARLSBAD,61209,10333,101,46886.774608941545,111748,94291,1244,57426,3204,0.05579354299446244,33.1175,-117.285,0.16881504353934879,606.0297029702971,0.031523096129837704,0.011132190285284747
CA,CARMEL VALLEY,7695,1272,10,45618,6457,5926,38,3373,239,0.07085680403201898,36.39,-121.65,0.16530214424951267,769.5,0.04184100418410042,0.005885085953229054
CA,CARMICHAEL,9270,1586,18,30797,60199,47598,3814,29337,3381,0.1152469577666428,38.62,-121.32,0.17108953613807984,515,0.005323868677905945,0.06335653416169704
CA,CARPINTERIA,5956,1148,11,31640,16603,12769,75,9317,468,0.050230760974562624,34.43,-119.52,0.19274680993955676,541.4545454545455,0.023504273504273504,0.004517255917605252
CA,CARSON,27863,4939,49,27114.53186596973,84369,22902,19366,43942,4512,0.1026808065176824,33.84,-118.255,0.17726016581129095,568.6326530612245,0.010859929078014184,0.22953928575661678
CA,CARUTHERS,6171,1056,7,16921,5689,3093,0,2519,325,0.12901945216355698,36.52,-119.87,0.1711229946524064,881.5714285714286,0.021538461538461538,0
CA,CASTAIC,823,137,3,30393,29676,20348,1706,12518,854,0.06822176066464292,34.51,-118.68,0.16646415552855406,274.3333333333333,0.00351288056206089,0.057487532012400595
CA,CASTRO VALLEY,8155,1365,15,43891.25108017283,58324,33490,3518,30906,1928,0.06238270885912121,37.695,-122.045,0.16738197424892703,543.6666666666666,0.007780082987551867,0.060318222344146494
CA,CASTROVILLE,4631,803,6,19447,11080,7056,97,5170,412,0.07969052224371373,36.76,-121.75,0.17339667458432304,771.8333333333334,0.014563106796116505,0.008754512635379061
CA,CATHEDRAL CITY,4698,817,10,22369,53253,40055,1504,24799,2251,0.09076978910439937,33.82,-116.45,0.17390378884631758,469.8,0.00444247001332741,0.02824254032636659
CA,CEDARVILLE,6027,1042,10,24259,576,537,0,264,17,0.06439393939393939,41.48,-120.14,0.17288866766218683,602.7,0.5882352941176471,0
CA,CERES,9057,1508,16,21435,42844,28455,767,19886,2929,0.14728955043749373,37.55,-120.96,0.1665010489124434,566.0625,0.0054626152270399455,0.017902156661376154
CA,CERRITOS,27115,4851,35,36885,50442,11870,4156,24161,1466,0.060676296510906,33.86,-118.05,0.17890466531440163,774.7142857142857,0.023874488403819918,0.08239165774552952
CA,CHATSWORTH,35372,6137,56,32992,38479,24409,1506,21513,1130,0.05252637939850323,34.28,-118.61,0.17349881262015154,631.6428571428571,0.049557522123893805,0.03913823124301567
CA,CHICO,22832,3772,44,22040.203058037336,110136,92408,1997,56653,5121,0.0903923887525815,39.78333333333333,-121.82333333333334,0.16520672740014014,518.9090909090909,0.008592071860964655,0.018132127551391007
CA,CHINO,29584,5075,47,26992.56279178338,89964,47591,4807,39936,3304,0.08273237179487179,34,-117.665,0.1715454299621417,629.4468085106383,0.014225181598062953,0.053432484104753014
CA,CHINO HILLS,10454,1761,20,39848,77266,37157,3195,41158,2781,0.06756888089800282,33.94,-117.72,0.1684522670748039,522.7,0.00719165767709457,0.0413506587632335
CA,CHOWCHILLA,7413,1240,15,17033,23757,16025,2105,6218,548,0.08813123190736571,37.07,-120.27,0.16727370835019562,494.2,0.02737226277372263,0.08860546365281811
CA,CHULA VISTA,20178,3477,34,30352.90490626934,255306,171494,12019,125882,11440,0.0908787594731574,32.628,-116.986,0.17231638418079095,593.4705882352941,0.002972027972027972,0.04707684112398455
CA,CITRUS HEIGHTS,17312,3041,26,26742.32591001974,86619,71466,3258,45437,4021,0.08849615951757378,38.69,-121.285,0.17565850277264325,665.8461538461538,0.006466053220591892,0.0376129948394694
CA,CLAREMONT,8247,1542,11,31939,36957,24929,1585,18166,1159,0.06380050644060332,34.12,-117.71,0.18697708257548198,749.7272727272727,0.009490940465918895,0.04288768027707877
CA,CLAYTON,9972,1668,14,52306,13139,10954,130,6549,453,0.06917086578103528,37.88,-121.84,0.16726835138387486,712.2857142857143,0.03090507726269316,0.00989420808280691
CA,CLEARLAKE,5301,921,10,15732,15358,10857,835,5802,1069,0.18424681144432953,38.96,-122.64,0.17374080362195812,530.1,0.009354536950420954,0.0543690584711551
CA,CLIO,6666,1133,6,42422,223,175,0,99,20,0.20202020202020202,39.72,-120.57,0.16996699669966997,1111,0.3,0
CA,CLOVERDALE,9251,1529,12,29729,10675,8334,116,5191,234,0.04507801964939318,38.78,-122.92,0.16527942925089179,770.9166666666666,0.05128205128205128,0.010866510538641686
CA,CLOVIS,9194,1578,15,34523.54596266922,117008,85141,2884,57503,4188,0.07283098273133576,36.88333333333333,-119.61666666666666,0.17163367413530564,612.9333333333333,0.0035816618911174787,0.02464788732394366
CA,COACHELLA,9226,1828,12,17691,44124,12883,346,21837,3671,0.16810917250538077,33.7,-116.17,0.19813570344678083,768.8333333333334,0.003268864069735767,0.007841537485268788
CA,COALINGA,12023,2167,20,22298,18617,10671,1035,6706,602,0.08977035490605428,36.19,-120.39,0.18023787740164685,601.15,0.03322259136212625,0.055594349250684856
CA,COARSEGOLD,5502,1040,9,24515,11255,10436,70,3689,360,0.09758742206560043,37.17,-119.71,0.1890221737549982,611.3333333333334,0.025,0.006219458018658374
CA,COLTON,27169,5431,27,23557,58854,38151,4411,27404,2677,0.09768646912859437,34.01,-117.27,0.19989694136699915,1006.2592592592592,0.010085917071348524,0.0749481768443946
CA,COLUSA,7414,1199,11,26075,7651,6570,75,3401,249,0.07321376065862982,39.27,-122.05,0.16172106824925817,674,0.04417670682730924,0.009802640177754542
CA,COMPTON,23986,4297,28,19259.18572946691,137388,52252,39348,61626,8028,0.13026969136403466,33.88333333333333,-118.22666666666666,0.17914616859834903,856.6428571428571,0.003487792725460887,0.2864005590007861
CA,CONCORD,50602,8619,84,33931.88652631251,128532,87347,5455,68832,4951,0.07192875406787541,37.9775,-122.0025,0.17032923599857713,602.4047619047619,0.016966269440517066,0.04244079295428376
CA,COOL,10246,1907,21,39406,4318,4199,0,2005,108,0.053865336658354114,38.88,-120.98,0.18612141323443296,487.9047619047619,0.19444444444444445,0
CA,COPPEROPOLIS,5368,891,9,34185,4498,4322,12,2058,220,0.10689990281827016,37.94,-120.66,0.16598360655737704,596.4444444444445,0.04090909090909091,0.0026678523788350376
CA,CORCORAN,8293,1372,10,16230,24861,16327,2457,5593,930,0.16627927766851422,36.07,-119.53,0.16544073314843843,829.3,0.010752688172043012,0.09882949197538313
CA,CORNING,8288,1577,11,21285,16322,13905,168,6953,978,0.14065870847116352,39.92,-122.28,0.19027509652509653,753.4545454545455,0.011247443762781187,0.010292856267614264
CA,CORONA,49485,9338,73,33194.68973208063,251083,162984,13920,125046,9486,0.07586008348927595,33.836,-117.544,0.1887036475699707,677.8767123287671,0.007695551338815096,0.05543983463635531
CA,CORONA DEL MAR,5613,944,10,65613,12187,10430,78,5884,197,0.03348062542488103,33.6,-117.86,0.16818100837341884,561.3,0.050761421319796954,0.006400262574874867
CA,CORONADO,12903,2222,12,41392,23473,21065,765,11908,480,0.040309035942223716,32.65,-117.14,0.17220801364023872,1075.25,0.025,0.032590636049929705
CA,CORTE MADERA,11829,1915,22,58528,9694,8311,89,5042,210,0.04165013883379611,37.92,-122.51,0.16189026967621947,537.6818181818181,0.10476190476190476,0.009180936661852693
CA,COSTA MESA,59840,10065,112,33790.07540948828,113129,78015,1967,67390,4169,0.06186377800860662,33.655,-117.905,0.16819852941176472,534.2857142857143,0.026864955624850084,0.01738723050676661
CA,COTATI,4867,917,9,31651,8436,6738,289,4720,346,0.07330508474576271,38.31,-122.7,0.18841175261968357,540.7777777777778,0.02601156069364162,0.034257942152678994
CA,COVINA,16831,2962,31,28607.84820975821,80855,40337,2636,42460,3636,0.08563353744700895,34.08,-117.87333333333333,0.17598478997088704,542.9354838709677,0.008525852585258526,0.03260157071300476
CA,CRESCENT CITY,8536,1441,10,20335,23500,18365,617,8523,840,0.09855684618092221,41.78,-124.16,0.16881443298969073,853.6,0.011904761904761904,0.02625531914893617
CA,CRESTLINE,5671,942,11,30676,8019,7316,129,3566,216,0.06057206954570948,34.25,-117.3,0.16610827014635868,515.5454545454545,0.05092592592592592,0.016086793864571642
CA,CROCKETT,4164,689,8,42473,3103,2516,80,1784,109,0.06109865470852018,38.04,-122.23,0.1654658981748319,520.5,0.07339449541284404,0.025781501772478246
CA,CULVER CITY,38849,6954,47,39387.87697360111,47502,30592,3748,27719,1786,0.06443233882896209,34.005,-118.39,0.17900074647996086,826.5744680851063,0.02631578947368421,0.07890194097090648
CA,CUPERTINO,37551,6536,45,73849,62632,17898,453,29437,1893,0.06430682474436933,37.3,-122.09,0.17405661633511757,834.4666666666667,0.02377179080824089,0.007232724485885809
CA,CYPRESS,17823,2990,27,36537,49093,27585,2125,25384,1224,0.04821935077213993,33.81,-118.03,0.16776075857038658,660.1111111111111,0.022058823529411766,0.0432851934084289
CA,DALY CITY,19006,3085,33,30995.9563302947,113099,25386,3452,66376,4724,0.07117030251898276,37.675,-122.45,0.16231716300115753,575.939393939394,0.006985605419136325,0.03052193211257394
CA,DANA POINT,10204,1924,13,41734,26797,22269,145,14968,778,0.0519775521111705,33.47,-117.7,0.18855350842806742,784.9230769230769,0.016709511568123392,0.005411053476135388
CA,DANVILLE,9103,1503,23,69784.96222751742,56655,44251,1025,26855,1211,0.04509402345931856,37.795,-121.925,0.16511040316379216,395.7826086956522,0.018992568125516102,0.018091960109434296
CA,DAVENPORT,6806,1212,10,36473,627,527,0,376,22,0.05851063829787234,37.09,-122.24,0.17807816632383192,680.6,0.45454545454545453,0
CA,DAVIS,15792,2749,23,23158.302821381738,77019,48131,2018,37052,2144,0.057864622692432255,38.504999999999995,-121.65,0.17407548125633232,686.6086956521739,0.010727611940298507,0.02620132694529921
CA,DEL MAR,12970,2115,20,63352,13665,11863,66,7231,251,0.034711658138570044,32.96,-117.25,0.1630686198920586,648.5,0.0796812749003984,0.004829857299670692
CA,DELANO,13676,2319,25,15221,55494,40094,2464,21440,2905,0.13549440298507462,35.78,-119.23,0.1695671248903188,547.04,0.008605851979345954,0.04440119652575053
CA,DELHI,2759,456,4,20487,13108,7307,380,5911,821,0.1388935882253426,37.42,-120.77,0.16527727437477346,689.75,0.0048721071863581,0.028989929813854134
CA,DESERT HOT SPRINGS,5760,1022,12,18975.658677833213,44896,30006,2621,17943,2005,0.11174274090174441,33.875,-116.385,0.17743055555555556,480,0.0059850374064837905,0.05837936564504633
CA,DIAMOND BAR,15398,2656,25,35589,47493,13682,2175,24726,1700,0.06875353878508453,33.99,-117.81,0.17248993375763086,615.92,0.014705882352941176,0.04579622260122544
CA,DINUBA,11938,1945,11,17089,30465,24706,180,13523,1757,0.1299267913924425,36.52,-119.39,0.1629251130842687,1085.2727272727273,0.006260671599317018,0.005908419497784343
CA,DISCOVERY BAY,7103,1168,12,50944,14820,11849,567,7654,504,0.065847922654821,37.86,-121.64,0.1644375615936928,591.9166666666666,0.023809523809523808,0.03825910931174089
CA,DIXON,10642,1775,18,27105,21685,14419,435,11263,823,0.07307111781940868,38.39,-121.81,0.16679195639917307,591.2222222222222,0.02187120291616039,0.02005994927369149
CA,DOWNEY,22812,4152,41,27943.75117246496,113223,74473,4280,58333,3700,0.06342893387962217,33.93666666666667,-118.13,0.18200946870068385,556.390243902439,0.01108108108108108,0.037801506760993794
CA,DUARTE,4652,811,12,25115.292026614712,27203,15046,2320,14071,1358,0.09651055362092247,34.135000000000005,-117.94999999999999,0.1743336199484093,387.6666666666667,0.008836524300441826,0.08528471124508326
CA,DUBLIN,34150,5914,46,57876,51248,25523,3159,27043,1011,0.03738490552083718,37.71,-121.91,0.17317715959004393,742.3913043478261,0.04549950544015826,0.06164142990945988
CA,DUNNIGAN,5594,942,9,19477,1400,1209,79,648,93,0.14351851851851852,38.88,-122,0.16839470861637468,621.5555555555555,0.0967741935483871,0.056428571428571425
CA,EL CAJON,32096,5648,46,24631.80844804035,171306,129498,8239,86018,8772,0.10197865563021694,32.800000000000004,-116.89999999999999,0.17597208374875373,697.7391304347826,0.005243958048335613,0.04809522141664624
CA,EL CENTRO,14454,2343,21,18323,49425,29549,1234,20857,2948,0.14134343385913603,32.77,-115.6,0.16210045662100456,688.2857142857143,0.007123473541383989,0.024967121901871524
CA,EL CERRITO,8728,1445,21,43559,24851,13500,1647,13505,825,0.061088485746019994,37.91,-122.3,0.1655591200733272,415.6190476190476,0.025454545454545455,0.06627499899400427
CA,EL DORADO HILLS,8437,1419,18,52753,40493,32294,884,19722,1239,0.06282324307879525,38.68,-121.05,0.1681877444589309,468.72222222222223,0.014527845036319613,0.021830933741634355
CA,EL MONTE,21186,3729,36,19375.692478018787,93034,46932,464,43055,4143,0.09622575775171292,34.075,-118.02000000000001,0.17601246105919002,588.5,0.008689355539464157,0.004987423952533482
CA,EL SEGUNDO,27173,4607,50,50221,16901,13448,286,9901,642,0.06484193515806484,33.91,-118.4,0.1695432966547676,543.46,0.0778816199376947,0.016922075616827407
CA,EL SOBRANTE,10329,1870,10,34014,25283,13029,3422,13910,914,0.06570812365204888,37.95,-122.26,0.1810436634717785,1032.9,0.010940919037199124,0.13534786219989717
CA,ELK GROVE,16933,3103,27,36434.59467726259,174910,80498,19427,85857,6913,0.08051760485458379,38.376666666666665,-121.38,0.18325163881178763,627.1481481481482,0.0039056849414147257,0.1110685495397633
CA,EMERYVILLE,22350,3712,30,35727,28864,12473,8031,18333,1427,0.0778377788687067,37.83,-122.29,0.16608501118568234,745,0.02102312543798178,0.2782358647450111
CA,EMPIRE,5894,1050,11,13525,1593,1141,72,524,102,0.1946564885496183,37.64,-120.9,0.17814726840855108,535.8181818181819,0.10784313725490197,0.04519774011299435
CA,ENCINITAS,12490,2061,23,45538,50246,44579,367,26959,1558,0.05779146110760785,33.05,-117.25,0.16501200960768614,543.0434782608696,0.014762516046213094,0.007304064005094933
CA,ENCINO,22684,3977,38,44172.94502486427,43838,36801,1237,24159,1986,0.08220538929591456,34.15,-118.505,0.17532181273144065,596.9473684210526,0.019133937562940583,0.02821752817190565
CA,ESCALON,8507,1376,13,26563,12759,11321,0,5746,285,0.0495997215454229,37.83,-121.03,0.16174914776066768,654.3846153846154,0.0456140350877193,0
CA,ESCONDIDO,34734,5774,49,26673.54046417421,178726,141813,4149,88498,5717,0.06460032995095934,33.13,-117.0375,0.16623481315137906,708.8571428571429,0.008570928808815813,0.023214305696988687
CA,EUREKA,13301,2162,22,22715.410066376186,49114,39137,677,24369,1793,0.07357708564159383,40.754999999999995,-124.13,0.1625441696113074,604.5909090909091,0.012269938650306749,0.01378425703465407
CA,EXETER,11189,2063,10,22204,15109,13073,131,6909,591,0.08554059921841077,36.28,-119.03,0.1843775136294575,1118.9,0.01692047377326565,0.008670328943014097
CA,FAIR OAKS,8045,1321,13,36170,41649,36084,773,21504,1897,0.08821614583333333,38.65,-121.25,0.1642013673088875,618.8461538461538,0.006852925672113864,0.01855986938461908
CA,FAIRFAX,3862,652,13,51129,8763,8033,50,5284,197,0.03728236184708554,37.98,-122.6,0.16882444329363025,297.0769230769231,0.06598984771573604,0.005705808513066302
CA,FAIRFIELD,35854,6098,63,32112.50898377564,110143,52081,15361,55764,5396,0.0967649379528011,38.254999999999995,-122.06,0.17007865231215485,569.1111111111111,0.01167531504818384,0.1394641511489609
CA,FALL RIVER MILLS,3289,550,9,26166,1403,1206,0,500,35,0.07,41.01,-121.47,0.16722408026755853,365.44444444444446,0.2571428571428571,0
CA,FALLBROOK,8189,1357,15,28105,48468,38975,1090,21867,1115,0.05099007637078703,33.39,-117.29,0.1657100989131762,545.9333333333333,0.013452914798206279,0.02248906495007015
CA,FERNDALE,6459,1095,10,22228,3140,2892,18,1557,45,0.028901734104046242,40.45,-124.26,0.1695308871342313,645.9,0.2222222222222222,0.005732484076433121
CA,FILLMORE,11849,1986,15,22363,17487,14398,21,8076,566,0.07008420009905894,34.4,-118.83,0.16760908093510002,789.9333333333333,0.026501766784452298,0.001200892091267799
CA,FIREBAUGH,5465,995,12,19375,10632,8201,26,5033,660,0.13113451221935227,36.85,-120.54,0.18206770356816102,455.4166666666667,0.01818181818181818,0.0024454477050413845
CA,FIVE POINTS,7225,1193,13,20019,1326,687,19,498,77,0.15461847389558234,36.38,-120.13,0.16512110726643597,555.7692307692307,0.16883116883116883,0.014328808446455505
CA,FOLSOM,21280,3670,39,52071,74905,52869,3433,35726,1720,0.048144208699546547,38.67,-121.14,0.1724624060150376,545.6410256410256,0.022674418604651164,0.04583138642280222
CA,FONTANA,34218,5931,59,25530.95210427885,230459,104932,20045,111872,11278,0.1008116418764302,34.089999999999996,-117.45666666666666,0.17332982640715414,579.9661016949152,0.00523142401134953,0.08697859489106523
CA,FOOTHILL RANCH,7142,1197,14,54152,11895,7971,191,7197,295,0.040989301097679585,33.7,-117.67,0.1676001120134416,510.14285714285717,0.04745762711864407,0.01605716687683901
CA,FORESTHILL,5768,1002,14,30496,6375,6059,36,2908,402,0.13823933975240715,39.03,-120.82,0.17371705963938974,412,0.03482587064676617,0.005647058823529412
CA,FORT BRAGG,11242,1903,18,20258,14578,12467,117,6697,413,0.061669404210840675,39.47,-123.63,0.16927592954990214,624.5555555555555,0.043583535108958835,0.008025792289751681
CA,FORT IRWIN,11425,2133,14,26769,9337,5974,1637,4443,152,0.034211118613549404,35.3,-116.74,0.18669584245076587,816.0714285714286,0.09210526315789473,0.17532397986505302
CA,FORTUNA,6348,1048,14,21596,13418,11210,38,6028,476,0.0789648307896483,40.57,-124.15,0.16509136735979837,453.42857142857144,0.029411764705882353,0.0028320166939931435
CA,FOUNTAIN VALLEY,12973,2146,32,34625,57675,31060,445,29298,1800,0.06143764079459349,33.71,-117.94,0.16542048870731518,405.40625,0.017777777777777778,0.007715648027741656
CA,FOWLER,10536,1732,14,19837,7446,5002,24,3332,325,0.0975390156062425,36.62,-119.67,0.16438876233864844,752.5714285714286,0.043076923076923075,0.0032232070910556
CA,FRAZIER PARK,5287,846,10,22273,4886,4600,0,1842,197,0.10694896851248643,34.8,-119.01,0.16001513145451107,528.7,0.050761421319796954,0
CA,FREEDOM,3617,621,8,17109,6252,3891,30,2847,233,0.08184053389532842,36.93,-121.78,0.1716892452308543,452.125,0.034334763948497854,0.0047984644913627635
CA,FREMONT,114738,18911,174,50246.83863128945,227981,60168,7404,119411,6047,0.050640225774844866,37.53,-121.975,0.16481897889103872,659.4137931034483,0.0287745989746982,0.032476390576407686
CA,FRENCH CAMP,4951,828,11,14112,4806,3094,443,1550,237,0.1529032258064516,37.86,-121.29,0.16723894162795394,450.09090909090907,0.046413502109704644,0.09217644610903038
CA,FRESNO,125599,22509,155,22620.570912103,592762,332549,43262,266789,31421,0.11777472084681152,36.772222222222226,-119.79722222222222,0.17921321029626033,810.3161290322581,0.0049330065879507334,0.07298376076739062
CA,FRIANT,4822,793,7,28750,1760,1404,0,764,91,0.11910994764397906,37.02,-119.69,0.1644545831605143,688.8571428571429,0.07692307692307693,0
CA,FULLERTON,37313,6350,53,28790.49645236809,138825,77143,3472,73217,5850,0.07989947689744185,33.8775,-117.92,0.1701819741108997,704.0188679245283,0.00905982905982906,0.025009904556095804
CA,GALT,3434,622,8,27054,30594,22871,441,14357,1293,0.09006059761788675,38.27,-121.22,0.18112987769365171,429.25,0.006187161639597835,0.01441459109629339
CA,GARBERVILLE,4037,715,6,21765,2008,1885,43,955,47,0.049214659685863874,40.22,-123.97,0.1771117166212534,672.8333333333334,0.1276595744680851,0.02141434262948207
CA,GARDEN GROVE,21793,3845,41,23717.430332446886,176359,72222,1852,89922,6376,0.07090589622116945,33.77,-117.966,0.17643279952278254,531.5365853658536,0.006430363864491844,0.010501306993121984
CA,GARDENA,40629,7014,52,24750.781967964464,85093,21698,18621,42683,3542,0.08298385774195816,33.88666666666667,-118.29,0.1726353097541165,781.3269230769231,0.014680971202710334,0.2188311612000987
CA,GEYSERVILLE,1854,293,7,29891,1909,1190,24,1096,34,0.03102189781021898,38.74,-123.13,0.15803667745415317,264.85714285714283,0.20588235294117646,0.012572027239392353
CA,GILROY,20244,3389,34,28743,61480,45732,999,31975,2110,0.06598905394839719,37.06,-121.55,0.1674076269511954,595.4117647058823,0.016113744075829384,0.01624918672739102
